{
"type": "FeatureCollection",
"crs": { "type": "name", "properties": { "name": "urn:ogc:def:crs:OGC:1.3:CRS84" } },
"features": [
{ "type": "Feature", "properties": { "name": "Tarracina", "t": 304 }, "geometry": { "type": "Point", "coordinates": [ 13.248, 41.29 ] } },
{ "type": "Feature", "properties": { "name": "Neomarus", "t": 304 }, "geometry": { "type": "Point", "coordinates": [ 28.23, 36.44 ] } },
{ "type": "Feature", "properties": { "name": "Lindum", "t": 304 }, "geometry": { "type": "Point", "coordinates": [ -0.5384, 53.2348 ] } },
{ "type": "Feature", "properties": { "name": "Legionum Urbs (Caerieon)", "t": 304 }, "geometry": { "type": "Point", "coordinates": [ -1.9718, 51.711 ] } },
{ "type": "Feature", "properties": { "name": "Londinium", "t": 304 }, "geometry": { "type": "Point", "coordinates": [ -0.0907, 51.5145 ] } },
{ "type": "Feature", "properties": { "name": "Verulamium", "t": 304 }, "geometry": { "type": "Point", "coordinates": [ -0.3585, 51.752 ] } },
{ "type": "Feature", "properties": { "name": "Eburacum", "t": 304 }, "geometry": { "type": "Point", "coordinates": [ -1.085, 53.9593 ] } },
{ "type": "Feature", "properties": { "name": "Aduatica Tungrorum", "t": 304 }, "geometry": { "type": "Point", "coordinates": [ 4.5, 50.5 ] } },
{ "type": "Feature", "properties": { "name": "Colonia Agrippina", "t": 200 }, "geometry": { "type": "Point", "coordinates": [ 6.9599, 50.9407 ] } },
{ "type": "Feature", "properties": { "name": "Augusta Suessionum", "t": 304 }, "geometry": { "type": "Point", "coordinates": [ 3.3259, 49.3808 ] } },
{ "type": "Feature", "properties": { "name": "Civ. Carnotensium", "t": 304 }, "geometry": { "type": "Point", "coordinates": [ 1.5, 48.5 ] } },
{ "type": "Feature", "properties": { "name": "Augusta Treverorum", "t": 200 }, "geometry": { "type": "Point", "coordinates": [ 6.645, 49.755 ] } },
{ "type": "Feature", "properties": { "name": "Divodurum Mediomatricorum", "t": 304 }, "geometry": { "type": "Point", "coordinates": [ 6.1742, 49.1181 ] } },
{ "type": "Feature", "properties": { "name": "Lutetia Parisiorum", "t": 304 }, "geometry": { "type": "Point", "coordinates": [ 2.3462, 48.8544 ] } },
{ "type": "Feature", "properties": { "name": "Remi", "t": 304 }, "geometry": { "type": "Point", "coordinates": [ 4.5, 49.5 ] } },
{ "type": "Feature", "properties": { "name": "Rotomagus", "t": 304 }, "geometry": { "type": "Point", "coordinates": [ 1.0965, 49.4408 ] } },
{ "type": "Feature", "properties": { "name": "Civ. Senonum", "t": 304 }, "geometry": { "type": "Point", "coordinates": [ 2.5, 48.5 ] } },
{ "type": "Feature", "properties": { "name": "Augusta Vindelicorum", "t": 304 }, "geometry": { "type": "Point", "coordinates": [ 10.8948, 48.3655 ] } },
{ "type": "Feature", "properties": { "name": "Lauriacum", "t": 304 }, "geometry": { "type": "Point", "coordinates": [ 14.4705, 48.2187 ] } },
{ "type": "Feature", "properties": { "name": "Civ. Arvernorum", "t": 304 }, "geometry": { "type": "Point", "coordinates": [ 3.0859, 45.7787 ] } },
{ "type": "Feature", "properties": { "name": "Autissiodurum", "t": 304 }, "geometry": { "type": "Point", "coordinates": [ 3.5735, 47.7978 ] } },
{ "type": "Feature", "properties": { "name": "Bituricae", "t": 304 }, "geometry": { "type": "Point", "coordinates": [ 2.3979, 47.0825 ] } },
{ "type": "Feature", "properties": { "name": "Burdigala", "t": 304 }, "geometry": { "type": "Point", "coordinates": [ -0.5798, 44.8425 ] } },
{ "type": "Feature", "properties": { "name": "Lemovices", "t": 304 }, "geometry": { "type": "Point", "coordinates": [ 0.5, 45.5 ] } },
{ "type": "Feature", "properties": { "name": "Pictavi", "t": 304 }, "geometry": { "type": "Point", "coordinates": [ 0.346, 46.5836 ] } },
{ "type": "Feature", "properties": { "name": "Turones", "t": 304 }, "geometry": { "type": "Point", "coordinates": [ 0.7771, 47.7307 ] } },
{ "type": "Feature", "properties": { "name": "Apta Iulia", "t": 304 }, "geometry": { "type": "Point", "coordinates": [ 5.3937, 43.8766 ] } },
{ "type": "Feature", "properties": { "name": "Arausio", "t": 304 }, "geometry": { "type": "Point", "coordinates": [ 4.8067, 44.1389 ] } },
{ "type": "Feature", "properties": { "name": "Massilia", "t": 200 }, "geometry": { "type": "Point", "coordinates": [ 5.3825, 43.2969 ] } },
{ "type": "Feature", "properties": { "name": "Arelate", "t": 200 }, "geometry": { "type": "Point", "coordinates": [ 4.6308, 43.6776 ] } },
{ "type": "Feature", "properties": { "name": "Vasio", "t": 304 }, "geometry": { "type": "Point", "coordinates": [ 5.0743, 44.2396 ] } },
{ "type": "Feature", "properties": { "name": "Nicaea", "t": 304 }, "geometry": { "type": "Point", "coordinates": [ 7.2662, 43.7034 ] } },
{ "type": "Feature", "properties": { "name": "Dea", "t": 304 }, "geometry": { "type": "Point", "coordinates": [ 5.3704, 44.7524 ] } },
{ "type": "Feature", "properties": { "name": "Lugdunum", "t": 200 }, "geometry": { "type": "Point", "coordinates": [ 4.8198, 45.7594 ] } },
{ "type": "Feature", "properties": { "name": "Valentia", "t": 304 }, "geometry": { "type": "Point", "coordinates": [ 4.8897, 44.9307 ] } },
{ "type": "Feature", "properties": { "name": "Vienna", "t": 200 }, "geometry": { "type": "Point", "coordinates": [ 4.876, 45.5248 ] } },
{ "type": "Feature", "properties": { "name": "Gabalis", "t": 304 }, "geometry": { "type": "Point", "coordinates": [ 3.25, 44.25 ] } },
{ "type": "Feature", "properties": { "name": "Augustodum", "t": 304 }, "geometry": { "type": "Point", "coordinates": [ 4.2992, 46.9472 ] } },
{ "type": "Feature", "properties": { "name": "Vesontio", "t": 304 }, "geometry": { "type": "Point", "coordinates": [ 6.0279, 47.2372 ] } },
{ "type": "Feature", "properties": { "name": "Aquileia", "t": 304 }, "geometry": { "type": "Point", "coordinates": [ 13.3678, 45.7689 ] } },
{ "type": "Feature", "properties": { "name": "Poetovio", "t": 304 }, "geometry": { "type": "Point", "coordinates": [ 15.8588, 46.4176 ] } },
{ "type": "Feature", "properties": { "name": "Salonae", "t": 200 }, "geometry": { "type": "Point", "coordinates": [ 16.4834, 43.5396 ] } },
{ "type": "Feature", "properties": { "name": "Savaria", "t": 304 }, "geometry": { "type": "Point", "coordinates": [ 16.6219, 47.2351 ] } },
{ "type": "Feature", "properties": { "name": "Scarbantia", "t": 304 }, "geometry": { "type": "Point", "coordinates": [ 16.6199, 47.7132 ] } },
{ "type": "Feature", "properties": { "name": "Siscia", "t": 304 }, "geometry": { "type": "Point", "coordinates": [ 16.3714, 45.4832 ] } },
{ "type": "Feature", "properties": { "name": "Bononia", "t": 304 }, "geometry": { "type": "Point", "coordinates": [ 22.8759, 43.9932 ] } },
{ "type": "Feature", "properties": { "name": "Sardica", "t": 304 }, "geometry": { "type": "Point", "coordinates": [ 23.3429, 42.7228 ] } },
{ "type": "Feature", "properties": { "name": "Singidunum", "t": 304 }, "geometry": { "type": "Point", "coordinates": [ 20.4579, 44.813 ] } },
{ "type": "Feature", "properties": { "name": "Sirmium", "t": 304 }, "geometry": { "type": "Point", "coordinates": [ 19.6101, 44.9664 ] } },
{ "type": "Feature", "properties": { "name": "Anchialus", "t": 200 }, "geometry": { "type": "Point", "coordinates": [ 27.6414, 42.5559 ] } },
{ "type": "Feature", "properties": { "name": "Axiopolis", "t": 304 }, "geometry": { "type": "Point", "coordinates": [ 28.0193, 44.3243 ] } },
{ "type": "Feature", "properties": { "name": "Debeltum", "t": 200 }, "geometry": { "type": "Point", "coordinates": [ 27.3667, 42.4433 ] } },
{ "type": "Feature", "properties": { "name": "Durostorum", "t": 304 }, "geometry": { "type": "Point", "coordinates": [ 27.2601, 44.1191 ] } },
{ "type": "Feature", "properties": { "name": "Marcianopolis", "t": 304 }, "geometry": { "type": "Point", "coordinates": [ 27.585, 43.225 ] } },
{ "type": "Feature", "properties": { "name": "Noviodunum", "t": 304 }, "geometry": { "type": "Point", "coordinates": [ 28.5, 45.5 ] } },
{ "type": "Feature", "properties": { "name": "Philippopolis", "t": 304 }, "geometry": { "type": "Point", "coordinates": [ 24.7495, 42.1456 ] } },
{ "type": "Feature", "properties": { "name": "Tomi", "t": 304 }, "geometry": { "type": "Point", "coordinates": [ 28.6497, 44.1729 ] } },
{ "type": "Feature", "properties": { "name": "Tropaeum Traiani", "t": 304 }, "geometry": { "type": "Point", "coordinates": [ 27.948, 44.0877 ] } },
{ "type": "Feature", "properties": { "name": "Chersonesus", "t": 304 }, "geometry": { "type": "Point", "coordinates": [ 33.4928, 44.6113 ] } },
{ "type": "Feature", "properties": { "name": "Metropolis Doris (or Gothya?)", "t": 304 }, "geometry": { "type": "Point", "coordinates": [ 34.5, 44.5 ] } },
{ "type": "Feature", "properties": { "name": "Asturica", "t": 304 }, "geometry": { "type": "Point", "coordinates": [ -6.0635, 42.4588 ] } },
{ "type": "Feature", "properties": { "name": "Legio", "t": 304 }, "geometry": { "type": "Point", "coordinates": [ -5.5692, 42.5997 ] } },
{ "type": "Feature", "properties": { "name": "Calagurss Nassica", "t": 304 }, "geometry": { "type": "Point", "coordinates": [ -1.9631, 42.3026 ] } },
{ "type": "Feature", "properties": { "name": "Calagurris Fibularia", "t": 304 }, "geometry": { "type": "Point", "coordinates": [ -0.6119, 42.3256 ] } },
{ "type": "Feature", "properties": { "name": "Barcino", "t": 304 }, "geometry": { "type": "Point", "coordinates": [ 2.1699, 41.3879 ] } },
{ "type": "Feature", "properties": { "name": "Caesaraugusta", "t": 304 }, "geometry": { "type": "Point", "coordinates": [ -0.8891, 41.6732 ] } },
{ "type": "Feature", "properties": { "name": "Narbo", "t": 304 }, "geometry": { "type": "Point", "coordinates": [ 3.0042, 43.1836 ] } },
{ "type": "Feature", "properties": { "name": "Tarraco", "t": 304 }, "geometry": { "type": "Point", "coordinates": [ 1.2885, 41.123 ] } },
{ "type": "Feature", "properties": { "name": "Complutum", "t": 304 }, "geometry": { "type": "Point", "coordinates": [ -3.3641, 40.4817 ] } },
{ "type": "Feature", "properties": { "name": "Elusa", "t": 304 }, "geometry": { "type": "Point", "coordinates": [ 0.1025, 43.8616 ] } },
{ "type": "Feature", "properties": { "name": "Gerunda", "t": 304 }, "geometry": { "type": "Point", "coordinates": [ 2.8266, 41.9873 ] } },
{ "type": "Feature", "properties": { "name": "Tolosa", "t": 304 }, "geometry": { "type": "Point", "coordinates": [ 1.4432, 43.6042 ] } },
{ "type": "Feature", "properties": { "name": "Acinipo", "t": 304 }, "geometry": { "type": "Point", "coordinates": [ -5.2407, 36.8324 ] } },
{ "type": "Feature", "properties": { "name": "Oebura", "t": 304 }, "geometry": { "type": "Point", "coordinates": [ -6.3542, 36.7792 ] } },
{ "type": "Feature", "properties": { "name": "Astigi", "t": 304 }, "geometry": { "type": "Point", "coordinates": [ -5.0799, 37.5409 ] } },
{ "type": "Feature", "properties": { "name": "Barbe", "t": 304 }, "geometry": { "type": "Point", "coordinates": [ -5.5, 36.5 ] } },
{ "type": "Feature", "properties": { "name": "Carula", "t": 304 }, "geometry": { "type": "Point", "coordinates": [ -5.3124, 37.2245 ] } },
{ "type": "Feature", "properties": { "name": "Corduba", "t": 304 }, "geometry": { "type": "Point", "coordinates": [ -4.7827, 37.8845 ] } },
{ "type": "Feature", "properties": { "name": "Emerita", "t": 304 }, "geometry": { "type": "Point", "coordinates": [ -6.3393, 38.9155 ] } },
{ "type": "Feature", "properties": { "name": "Gades", "t": 304 }, "geometry": { "type": "Point", "coordinates": [ -6.2937, 36.5291 ] } },
{ "type": "Feature", "properties": { "name": "Hispalis", "t": 304 }, "geometry": { "type": "Point", "coordinates": [ -5.9963, 37.3827 ] } },
{ "type": "Feature", "properties": { "name": "Ilipula", "t": 304 }, "geometry": { "type": "Point", "coordinates": [ -5.0104, 37.1476 ] } },
{ "type": "Feature", "properties": { "name": "Ipagrum", "t": 304 }, "geometry": { "type": "Point", "coordinates": [ -4.6582, 37.5178 ] } },
{ "type": "Feature", "properties": { "name": "Italica", "t": 304 }, "geometry": { "type": "Point", "coordinates": [ -6.0451, 37.4427 ] } },
{ "type": "Feature", "properties": { "name": "Ossonova", "t": 304 }, "geometry": { "type": "Point", "coordinates": [ -6.9497, 37.2571 ] } },
{ "type": "Feature", "properties": { "name": "Segunta", "t": 304 }, "geometry": { "type": "Point", "coordinates": [ -5.8342, 36.5521 ] } },
{ "type": "Feature", "properties": { "name": "Singilia", "t": 304 }, "geometry": { "type": "Point", "coordinates": [ -4.6304, 37.0325 ] } },
{ "type": "Feature", "properties": { "name": "Ulia", "t": 304 }, "geometry": { "type": "Point", "coordinates": [ -4.6989, 37.6487 ] } },
{ "type": "Feature", "properties": { "name": "Urso(na)", "t": 304 }, "geometry": { "type": "Point", "coordinates": [ -5.101, 37.2418 ] } },
{ "type": "Feature", "properties": { "name": "Acci", "t": 304 }, "geometry": { "type": "Point", "coordinates": [ -3.1346, 37.3003 ] } },
{ "type": "Feature", "properties": { "name": "Gemelia", "t": 304 }, "geometry": { "type": "Point", "coordinates": [ -4.5404, 37.2673 ] } },
{ "type": "Feature", "properties": { "name": "Ategua", "t": 304 }, "geometry": { "type": "Point", "coordinates": [ -4.6336, 37.7343 ] } },
{ "type": "Feature", "properties": { "name": "Baecula", "t": 304 }, "geometry": { "type": "Point", "coordinates": [ -3.7749, 38.0959 ] } },
{ "type": "Feature", "properties": { "name": "Baria", "t": 304 }, "geometry": { "type": "Point", "coordinates": [ -1.7749, 37.2454 ] } },
{ "type": "Feature", "properties": { "name": "Basti", "t": 304 }, "geometry": { "type": "Point", "coordinates": [ -2.7746, 37.4905 ] } },
{ "type": "Feature", "properties": { "name": "Carthago Nova", "t": 304 }, "geometry": { "type": "Point", "coordinates": [ -0.988, 37.6028 ] } },
{ "type": "Feature", "properties": { "name": "Castulo", "t": 304 }, "geometry": { "type": "Point", "coordinates": [ -3.624, 38.0369 ] } },
{ "type": "Feature", "properties": { "name": "Eliocroca", "t": 304 }, "geometry": { "type": "Point", "coordinates": [ -1.6988, 37.6714 ] } },
{ "type": "Feature", "properties": { "name": "Epora", "t": 304 }, "geometry": { "type": "Point", "coordinates": [ -4.3819, 38.026 ] } },
{ "type": "Feature", "properties": { "name": "Illiberris", "t": 304 }, "geometry": { "type": "Point", "coordinates": [ -3.5979, 37.1765 ] } },
{ "type": "Feature", "properties": { "name": "Illiturgi", "t": 304 }, "geometry": { "type": "Point", "coordinates": [ -3.8088, 37.9683 ] } },
{ "type": "Feature", "properties": { "name": "Malocca", "t": 304 }, "geometry": { "type": "Point", "coordinates": [ -4.4202, 36.7197 ] } },
{ "type": "Feature", "properties": { "name": "Mentesa", "t": 304 }, "geometry": { "type": "Point", "coordinates": [ -2.6948, 38.6922 ] } },
{ "type": "Feature", "properties": { "name": "Ossigi", "t": 304 }, "geometry": { "type": "Point", "coordinates": [ -3.5603, 37.8489 ] } },
{ "type": "Feature", "properties": { "name": "Salambina", "t": 304 }, "geometry": { "type": "Point", "coordinates": [ -3.5871, 36.7462 ] } },
{ "type": "Feature", "properties": { "name": "Suel", "t": 304 }, "geometry": { "type": "Point", "coordinates": [ -4.6289, 36.5254 ] } },
{ "type": "Feature", "properties": { "name": "Toletum", "t": 304 }, "geometry": { "type": "Point", "coordinates": [ -4.0245, 39.8567 ] } },
{ "type": "Feature", "properties": { "name": "Tucci", "t": 304 }, "geometry": { "type": "Point", "coordinates": [ -3.9662, 37.7228 ] } },
{ "type": "Feature", "properties": { "name": "Valentia", "t": 304 }, "geometry": { "type": "Point", "coordinates": [ -0.3768, 39.4704 ] } },
{ "type": "Feature", "properties": { "name": "Altava", "t": 304 }, "geometry": { "type": "Point", "coordinates": [ -1.0315, 34.9036 ] } },
{ "type": "Feature", "properties": { "name": "Auzia", "t": 304 }, "geometry": { "type": "Point", "coordinates": [ 3.6913, 36.1444 ] } },
{ "type": "Feature", "properties": { "name": "Cartennae", "t": 304 }, "geometry": { "type": "Point", "coordinates": [ 1.311, 36.51 ] } },
{ "type": "Feature", "properties": { "name": "Castrum Tingitii", "t": 304 }, "geometry": { "type": "Point", "coordinates": [ 1.3326, 36.1664 ] } },
{ "type": "Feature", "properties": { "name": "Caesarea Mauretaniae", "t": 304 }, "geometry": { "type": "Point", "coordinates": [ 2.1918, 36.6071 ] } },
{ "type": "Feature", "properties": { "name": "Rusuccurru", "t": 304 }, "geometry": { "type": "Point", "coordinates": [ 3.9096, 36.9129 ] } },
{ "type": "Feature", "properties": { "name": "Tigava", "t": 304 }, "geometry": { "type": "Point", "coordinates": [ 1.6514, 36.2319 ] } },
{ "type": "Feature", "properties": { "name": "Tipasa", "t": 304 }, "geometry": { "type": "Point", "coordinates": [ 2.4409, 36.594 ] } },
{ "type": "Feature", "properties": { "name": "Aquae", "t": 304 }, "geometry": { "type": "Point", "coordinates": [ 7.2701, 36.4599 ] } },
{ "type": "Feature", "properties": { "name": "Calama", "t": 304 }, "geometry": { "type": "Point", "coordinates": [ 7.4277, 36.4643 ] } },
{ "type": "Feature", "properties": { "name": "Cirta", "t": 200 }, "geometry": { "type": "Point", "coordinates": [ 6.6137, 36.3681 ] } },
{ "type": "Feature", "properties": { "name": "Rotaria", "t": 304 }, "geometry": { "type": "Point", "coordinates": [ 7.2605, 36.2394 ] } },
{ "type": "Feature", "properties": { "name": "Cuicul", "t": 304 }, "geometry": { "type": "Point", "coordinates": [ 5.7367, 36.3177 ] } },
{ "type": "Feature", "properties": { "name": "Gazaufala", "t": 304 }, "geometry": { "type": "Point", "coordinates": [ 7.2863, 36.0588 ] } },
{ "type": "Feature", "properties": { "name": "Garba", "t": 304 }, "geometry": { "type": "Point", "coordinates": [ 6.1303, 36.3829 ] } },
{ "type": "Feature", "properties": { "name": "Hippo Regius", "t": 304 }, "geometry": { "type": "Point", "coordinates": [ 7.7513, 36.8825 ] } },
{ "type": "Feature", "properties": { "name": "Milev", "t": 304 }, "geometry": { "type": "Point", "coordinates": [ 6.2677, 36.4513 ] } },
{ "type": "Feature", "properties": { "name": "Novaricia", "t": 304 }, "geometry": { "type": "Point", "coordinates": [ 5.607, 36.2824 ] } },
{ "type": "Feature", "properties": { "name": "Thucca", "t": 304 }, "geometry": { "type": "Point", "coordinates": [ 6.1015, 36.8651 ] } },
{ "type": "Feature", "properties": { "name": "Rusicade", "t": 304 }, "geometry": { "type": "Point", "coordinates": [ 6.9056, 36.8814 ] } },
{ "type": "Feature", "properties": { "name": "Sitifi", "t": 200 }, "geometry": { "type": "Point", "coordinates": [ 5.4108, 36.1931 ] } },
{ "type": "Feature", "properties": { "name": "Tigisi", "t": 304 }, "geometry": { "type": "Point", "coordinates": [ 6.9427, 36.1107 ] } },
{ "type": "Feature", "properties": { "name": "Abbircella", "t": 304 }, "geometry": { "type": "Point", "coordinates": [ 9.8442, 36.4666 ] } },
{ "type": "Feature", "properties": { "name": "Abitina", "t": 304 }, "geometry": { "type": "Point", "coordinates": [ 9.5491, 36.6279 ] } },
{ "type": "Feature", "properties": { "name": "Abthungi", "t": 304 }, "geometry": { "type": "Point", "coordinates": [ 10.031, 36.1865 ] } },
{ "type": "Feature", "properties": { "name": "Agbia", "t": 304 }, "geometry": { "type": "Point", "coordinates": [ 9.2283, 36.3931 ] } },
{ "type": "Feature", "properties": { "name": "Bulla Regia Tibilitanae", "t": 304 }, "geometry": { "type": "Point", "coordinates": [ 8.7523, 36.5578 ] } },
{ "type": "Feature", "properties": { "name": "Carthago", "t": 200 }, "geometry": { "type": "Point", "coordinates": [ 10.3222, 36.8481 ] } },
{ "type": "Feature", "properties": { "name": "Curubis", "t": 304 }, "geometry": { "type": "Point", "coordinates": [ 10.8625, 36.5756 ] } },
{ "type": "Feature", "properties": { "name": "Furni", "t": 304 }, "geometry": { "type": "Point", "coordinates": [ 9.5826, 36.1365 ] } },
{ "type": "Feature", "properties": { "name": "Furni", "t": 304 }, "geometry": { "type": "Point", "coordinates": [ 9.83, 36.6931 ] } },
{ "type": "Feature", "properties": { "name": "Gor", "t": 304 }, "geometry": { "type": "Point", "coordinates": [ 9.976, 36.4343 ] } },
{ "type": "Feature", "properties": { "name": "Hippo Zarytus", "t": 304 }, "geometry": { "type": "Point", "coordinates": [ 9.8731, 37.2761 ] } },
{ "type": "Feature", "properties": { "name": "Horrea Caelia", "t": 304 }, "geometry": { "type": "Point", "coordinates": [ 10.5079, 36.0301 ] } },
{ "type": "Feature", "properties": { "name": "Lares", "t": 304 }, "geometry": { "type": "Point", "coordinates": [ 8.8414, 36.0813 ] } },
{ "type": "Feature", "properties": { "name": "Madaurus", "t": 200 }, "geometry": { "type": "Point", "coordinates": [ 7.9027, 36.0777 ] } },
{ "type": "Feature", "properties": { "name": "Maxula", "t": 304 }, "geometry": { "type": "Point", "coordinates": [ 10.2716, 36.7688 ] } },
{ "type": "Feature", "properties": { "name": "Membressa", "t": 304 }, "geometry": { "type": "Point", "coordinates": [ 9.6134, 36.6487 ] } },
{ "type": "Feature", "properties": { "name": "Tibuica", "t": 304 }, "geometry": { "type": "Point", "coordinates": [ 9.8284, 36.6648 ] } },
{ "type": "Feature", "properties": { "name": "Neapolis", "t": 304 }, "geometry": { "type": "Point", "coordinates": [ 10.7412, 36.4504 ] } },
{ "type": "Feature", "properties": { "name": "Rusuca", "t": 304 }, "geometry": { "type": "Point", "coordinates": [ 10.2159, 37.1685 ] } },
{ "type": "Feature", "properties": { "name": "Segermes", "t": 304 }, "geometry": { "type": "Point", "coordinates": [ 10.3017, 36.345 ] } },
{ "type": "Feature", "properties": { "name": "Sicca Veneria", "t": 304 }, "geometry": { "type": "Point", "coordinates": [ 8.7122, 36.1806 ] } },
{ "type": "Feature", "properties": { "name": "Sicilibba", "t": 304 }, "geometry": { "type": "Point", "coordinates": [ 9.8736, 36.6859 ] } },
{ "type": "Feature", "properties": { "name": "Cululi", "t": 304 }, "geometry": { "type": "Point", "coordinates": [ 9.6052, 36.4614 ] } },
{ "type": "Feature", "properties": { "name": "Suturnica", "t": 304 }, "geometry": { "type": "Point", "coordinates": [ 9.9837, 36.5813 ] } },
{ "type": "Feature", "properties": { "name": "Thabraca", "t": 304 }, "geometry": { "type": "Point", "coordinates": [ 8.7497, 36.9568 ] } },
{ "type": "Feature", "properties": { "name": "Thagaste", "t": 304 }, "geometry": { "type": "Point", "coordinates": [ 7.9802, 36.2611 ] } },
{ "type": "Feature", "properties": { "name": "Thagura", "t": 304 }, "geometry": { "type": "Point", "coordinates": [ 8.0447, 36.1742 ] } },
{ "type": "Feature", "properties": { "name": "Thibaris", "t": 304 }, "geometry": { "type": "Point", "coordinates": [ 9.095, 36.5127 ] } },
{ "type": "Feature", "properties": { "name": "Timida Regia", "t": 304 }, "geometry": { "type": "Point", "coordinates": [ 10.1418, 36.6407 ] } },
{ "type": "Feature", "properties": { "name": "Thiniza", "t": 304 }, "geometry": { "type": "Point", "coordinates": [ 10.25, 37.25 ] } },
{ "type": "Feature", "properties": { "name": "Thuburbo minus", "t": 200 }, "geometry": { "type": "Point", "coordinates": [ 9.8386, 36.8296 ] } },
{ "type": "Feature", "properties": { "name": "Thuburbo maius", "t": 304 }, "geometry": { "type": "Point", "coordinates": [ 9.904, 36.4004 ] } },
{ "type": "Feature", "properties": { "name": "Thubursicum Bure", "t": 304 }, "geometry": { "type": "Point", "coordinates": [ 9.2471, 36.4589 ] } },
{ "type": "Feature", "properties": { "name": "Thucca", "t": 304 }, "geometry": { "type": "Point", "coordinates": [ 9.2189, 36.4225 ] } },
{ "type": "Feature", "properties": { "name": "Thuccabor", "t": 304 }, "geometry": { "type": "Point", "coordinates": [ 9.5225, 36.7053 ] } },
{ "type": "Feature", "properties": { "name": "Uthina", "t": 200 }, "geometry": { "type": "Point", "coordinates": [ 10.1723, 36.6075 ] } },
{ "type": "Feature", "properties": { "name": "Utica", "t": 304 }, "geometry": { "type": "Point", "coordinates": [ 10.0613, 37.0556 ] } },
{ "type": "Feature", "properties": { "name": "Uzalis", "t": 304 }, "geometry": { "type": "Point", "coordinates": [ 10.034, 37.169 ] } },
{ "type": "Feature", "properties": { "name": "Vaga", "t": 304 }, "geometry": { "type": "Point", "coordinates": [ 9.1842, 36.7266 ] } },
{ "type": "Feature", "properties": { "name": "Zama", "t": 304 }, "geometry": { "type": "Point", "coordinates": [ 9.2857, 36.1119 ] } },
{ "type": "Feature", "properties": { "name": "Ad Aquas Caesaris", "t": 304 }, "geometry": { "type": "Point", "coordinates": [ 7.9492, 35.4503 ] } },
{ "type": "Feature", "properties": { "name": "Ammaedera", "t": 304 }, "geometry": { "type": "Point", "coordinates": [ 8.4525, 35.5651 ] } },
{ "type": "Feature", "properties": { "name": "Assuras", "t": 304 }, "geometry": { "type": "Point", "coordinates": [ 9.0097, 35.9959 ] } },
{ "type": "Feature", "properties": { "name": "Capsa", "t": 304 }, "geometry": { "type": "Point", "coordinates": [ 8.7902, 34.4127 ] } },
{ "type": "Feature", "properties": { "name": "Cillium", "t": 304 }, "geometry": { "type": "Point", "coordinates": [ 8.8175, 35.1676 ] } },
{ "type": "Feature", "properties": { "name": "Gemellae", "t": 304 }, "geometry": { "type": "Point", "coordinates": [ 8.75, 34.75 ] } },
{ "type": "Feature", "properties": { "name": "Hadrumetum", "t": 304 }, "geometry": { "type": "Point", "coordinates": [ 10.6388, 35.8259 ] } },
{ "type": "Feature", "properties": { "name": "Leptis minor", "t": 304 }, "geometry": { "type": "Point", "coordinates": [ 10.8749, 35.6746 ] } },
{ "type": "Feature", "properties": { "name": "Macomades minores", "t": 304 }, "geometry": { "type": "Point", "coordinates": [ 10.4973, 34.5259 ] } },
{ "type": "Feature", "properties": { "name": "Mactaris", "t": 304 }, "geometry": { "type": "Point", "coordinates": [ 9.207, 35.8539 ] } },
{ "type": "Feature", "properties": { "name": "Muzuca", "t": 304 }, "geometry": { "type": "Point", "coordinates": [ 9.7104, 35.979 ] } },
{ "type": "Feature", "properties": { "name": "Obba", "t": 304 }, "geometry": { "type": "Point", "coordinates": [ 8.8296, 35.9447 ] } },
{ "type": "Feature", "properties": { "name": "Sufes", "t": 304 }, "geometry": { "type": "Point", "coordinates": [ 9.0732, 35.5434 ] } },
{ "type": "Feature", "properties": { "name": "Sufetuia", "t": 304 }, "geometry": { "type": "Point", "coordinates": [ 9.1198, 35.2402 ] } },
{ "type": "Feature", "properties": { "name": "Thenae", "t": 304 }, "geometry": { "type": "Point", "coordinates": [ 10.6707, 34.6553 ] } },
{ "type": "Feature", "properties": { "name": "Thelepte", "t": 304 }, "geometry": { "type": "Point", "coordinates": [ 8.5952, 34.9787 ] } },
{ "type": "Feature", "properties": { "name": "Theveste", "t": 304 }, "geometry": { "type": "Point", "coordinates": [ 8.1223, 35.4042 ] } },
{ "type": "Feature", "properties": { "name": "Thucca Terebinthina", "t": 304 }, "geometry": { "type": "Point", "coordinates": [ 9.0142, 35.8295 ] } },
{ "type": "Feature", "properties": { "name": "Thysdrus", "t": 200 }, "geometry": { "type": "Point", "coordinates": [ 10.7076, 35.2961 ] } },
{ "type": "Feature", "properties": { "name": "Urusi", "t": 304 }, "geometry": { "type": "Point", "coordinates": [ 9.5773, 35.9871 ] } },
{ "type": "Feature", "properties": { "name": "Auzafa", "t": 304 }, "geometry": { "type": "Point", "coordinates": [ 9.3305, 35.924 ] } },
{ "type": "Feature", "properties": { "name": "Ad Badias", "t": 304 }, "geometry": { "type": "Point", "coordinates": [ 6.6712, 34.7502 ] } },
{ "type": "Feature", "properties": { "name": "Bagai", "t": 304 }, "geometry": { "type": "Point", "coordinates": [ 7.1174, 35.5344 ] } },
{ "type": "Feature", "properties": { "name": "Cediae", "t": 304 }, "geometry": { "type": "Point", "coordinates": [ 7.2747, 35.2555 ] } },
{ "type": "Feature", "properties": { "name": "Lamasba", "t": 304 }, "geometry": { "type": "Point", "coordinates": [ 5.9106, 35.6284 ] } },
{ "type": "Feature", "properties": { "name": "Lambaesis", "t": 200 }, "geometry": { "type": "Point", "coordinates": [ 6.2548, 35.4902 ] } },
{ "type": "Feature", "properties": { "name": "Macomades", "t": 304 }, "geometry": { "type": "Point", "coordinates": [ 7.1652, 35.8254 ] } },
{ "type": "Feature", "properties": { "name": "Mascula", "t": 304 }, "geometry": { "type": "Point", "coordinates": [ 7.1484, 35.4356 ] } },
{ "type": "Feature", "properties": { "name": "Thamugadi", "t": 304 }, "geometry": { "type": "Point", "coordinates": [ 6.4682, 35.4848 ] } },
{ "type": "Feature", "properties": { "name": "Tupunae", "t": 304 }, "geometry": { "type": "Point", "coordinates": [ 5.3502, 35.3504 ] } },
{ "type": "Feature", "properties": { "name": "Thasuarte", "t": 304 }, "geometry": { "type": "Point", "coordinates": [ 8.1436, 33.9177 ] } },
{ "type": "Feature", "properties": { "name": "Sabratha", "t": 304 }, "geometry": { "type": "Point", "coordinates": [ 12.4843, 32.8053 ] } },
{ "type": "Feature", "properties": { "name": "Meninx", "t": 304 }, "geometry": { "type": "Point", "coordinates": [ 10.9131, 33.6889 ] } },
{ "type": "Feature", "properties": { "name": "Leptis Magna (Neapolis)", "t": 200 }, "geometry": { "type": "Point", "coordinates": [ 14.2918, 32.6374 ] } },
{ "type": "Feature", "properties": { "name": "Oea", "t": 304 }, "geometry": { "type": "Point", "coordinates": [ 13.1753, 32.8976 ] } },
{ "type": "Feature", "properties": { "name": "Tauchira", "t": 304 }, "geometry": { "type": "Point", "coordinates": [ 20.5678, 32.5363 ] } },
{ "type": "Feature", "properties": { "name": "Barce", "t": 304 }, "geometry": { "type": "Point", "coordinates": [ 20.8614, 32.4995 ] } },
{ "type": "Feature", "properties": { "name": "Berenice", "t": 304 }, "geometry": { "type": "Point", "coordinates": [ 20.07, 32.1139 ] } },
{ "type": "Feature", "properties": { "name": "Cyrene", "t": 100 }, "geometry": { "type": "Point", "coordinates": [ 21.8567, 32.8209 ] } },
{ "type": "Feature", "properties": { "name": "Ptolemais", "t": 304 }, "geometry": { "type": "Point", "coordinates": [ 20.9508, 32.7088 ] } },
{ "type": "Feature", "properties": { "name": "Bergomum", "t": 304 }, "geometry": { "type": "Point", "coordinates": [ 9.6699, 45.6949 ] } },
{ "type": "Feature", "properties": { "name": "Brixia", "t": 304 }, "geometry": { "type": "Point", "coordinates": [ 10.2231, 45.5398 ] } },
{ "type": "Feature", "properties": { "name": "Comum", "t": 304 }, "geometry": { "type": "Point", "coordinates": [ 9.0858, 45.8119 ] } },
{ "type": "Feature", "properties": { "name": "Genua", "t": 304 }, "geometry": { "type": "Point", "coordinates": [ 8.9315, 44.4062 ] } },
{ "type": "Feature", "properties": { "name": "Mediolanum", "t": 304 }, "geometry": { "type": "Point", "coordinates": [ 9.1844, 45.4645 ] } },
{ "type": "Feature", "properties": { "name": "Placentia", "t": 304 }, "geometry": { "type": "Point", "coordinates": [ 9.6977, 45.0526 ] } },
{ "type": "Feature", "properties": { "name": "Verona", "t": 304 }, "geometry": { "type": "Point", "coordinates": [ 10.9944, 45.439 ] } },
{ "type": "Feature", "properties": { "name": "Ariminum", "t": 304 }, "geometry": { "type": "Point", "coordinates": [ 12.5692, 44.0587 ] } },
{ "type": "Feature", "properties": { "name": "Caesena", "t": 304 }, "geometry": { "type": "Point", "coordinates": [ 12.2405, 44.1365 ] } },
{ "type": "Feature", "properties": { "name": "Faventiae", "t": 304 }, "geometry": { "type": "Point", "coordinates": [ 11.8835, 44.2862 ] } },
{ "type": "Feature", "properties": { "name": "Bononia", "t": 304 }, "geometry": { "type": "Point", "coordinates": [ 11.3455, 44.4946 ] } },
{ "type": "Feature", "properties": { "name": "Patavium", "t": 304 }, "geometry": { "type": "Point", "coordinates": [ 11.877, 45.4096 ] } },
{ "type": "Feature", "properties": { "name": "Ravenna", "t": 304 }, "geometry": { "type": "Point", "coordinates": [ 12.1966, 44.4157 ] } },
{ "type": "Feature", "properties": { "name": "Luca", "t": 304 }, "geometry": { "type": "Point", "coordinates": [ 10.5069, 43.8431 ] } },
{ "type": "Feature", "properties": { "name": "Pisae", "t": 304 }, "geometry": { "type": "Point", "coordinates": [ 10.3992, 43.7192 ] } },
{ "type": "Feature", "properties": { "name": "Aesinum", "t": 304 }, "geometry": { "type": "Point", "coordinates": [ 13.2434, 43.5224 ] } },
{ "type": "Feature", "properties": { "name": "Amiternum", "t": 304 }, "geometry": { "type": "Point", "coordinates": [ 13.3103, 42.3988 ] } },
{ "type": "Feature", "properties": { "name": "Ancona", "t": 304 }, "geometry": { "type": "Point", "coordinates": [ 13.5146, 43.6206 ] } },
{ "type": "Feature", "properties": { "name": "Arretium", "t": 304 }, "geometry": { "type": "Point", "coordinates": [ 11.8714, 43.4661 ] } },
{ "type": "Feature", "properties": { "name": "Assisium", "t": 304 }, "geometry": { "type": "Point", "coordinates": [ 12.619, 43.0706 ] } },
{ "type": "Feature", "properties": { "name": "Centumcellae", "t": 304 }, "geometry": { "type": "Point", "coordinates": [ 11.7968, 42.0912 ] } },
{ "type": "Feature", "properties": { "name": "Clusium", "t": 304 }, "geometry": { "type": "Point", "coordinates": [ 11.9487, 43.0164 ] } },
{ "type": "Feature", "properties": { "name": "Fanum", "t": 304 }, "geometry": { "type": "Point", "coordinates": [ 13.0157, 43.844 ] } },
{ "type": "Feature", "properties": { "name": "Florentia", "t": 304 }, "geometry": { "type": "Point", "coordinates": [ 11.2569, 43.7688 ] } },
{ "type": "Feature", "properties": { "name": "Forum Flaminiae", "t": 304 }, "geometry": { "type": "Point", "coordinates": [ 12.7058, 42.9823 ] } },
{ "type": "Feature", "properties": { "name": "Fulginiae", "t": 304 }, "geometry": { "type": "Point", "coordinates": [ 12.7027, 42.9506 ] } },
{ "type": "Feature", "properties": { "name": "Interamna", "t": 304 }, "geometry": { "type": "Point", "coordinates": [ 12.6468, 42.5602 ] } },
{ "type": "Feature", "properties": { "name": "Mevania", "t": 304 }, "geometry": { "type": "Point", "coordinates": [ 12.6094, 42.9349 ] } },
{ "type": "Feature", "properties": { "name": "Nursia", "t": 304 }, "geometry": { "type": "Point", "coordinates": [ 13.0964, 42.7942 ] } },
{ "type": "Feature", "properties": { "name": "Perusia", "t": 304 }, "geometry": { "type": "Point", "coordinates": [ 12.3899, 43.1112 ] } },
{ "type": "Feature", "properties": { "name": "Pisaurum", "t": 304 }, "geometry": { "type": "Point", "coordinates": [ 12.9158, 43.9121 ] } },
{ "type": "Feature", "properties": { "name": "Quintianum", "t": 304 }, "geometry": { "type": "Point", "coordinates": [ 11.6526, 42.2738 ] } },
{ "type": "Feature", "properties": { "name": "Sena", "t": 304 }, "geometry": { "type": "Point", "coordinates": [ 11.3305, 43.3187 ] } },
{ "type": "Feature", "properties": { "name": "Spoletium", "t": 304 }, "geometry": { "type": "Point", "coordinates": [ 12.7369, 42.7393 ] } },
{ "type": "Feature", "properties": { "name": "Tuder", "t": 304 }, "geometry": { "type": "Point", "coordinates": [ 12.4085, 42.7803 ] } },
{ "type": "Feature", "properties": { "name": "Urbinum", "t": 304 }, "geometry": { "type": "Point", "coordinates": [ 12.6367, 43.7247 ] } },
{ "type": "Feature", "properties": { "name": "Volsinii", "t": 304 }, "geometry": { "type": "Point", "coordinates": [ 11.9861, 42.6449 ] } },
{ "type": "Feature", "properties": { "name": "Albanum", "t": 304 }, "geometry": { "type": "Point", "coordinates": [ 12.6505, 41.7464 ] } },
{ "type": "Feature", "properties": { "name": "Antium", "t": 200 }, "geometry": { "type": "Point", "coordinates": [ 12.6255, 41.447 ] } },
{ "type": "Feature", "properties": { "name": "Labicum", "t": 304 }, "geometry": { "type": "Point", "coordinates": [ 12.7446, 41.8208 ] } },
{ "type": "Feature", "properties": { "name": "Ostia", "t": 200 }, "geometry": { "type": "Point", "coordinates": [ 12.2896, 41.7525 ] } },
{ "type": "Feature", "properties": { "name": "Portus", "t": 200 }, "geometry": { "type": "Point", "coordinates": [ 12.2603, 41.7798 ] } },
{ "type": "Feature", "properties": { "name": "Praeneste", "t": 304 }, "geometry": { "type": "Point", "coordinates": [ 12.8923, 41.8395 ] } },
{ "type": "Feature", "properties": { "name": "Roma", "t": 100 }, "geometry": { "type": "Point", "coordinates": [ 12.4862, 41.8917 ] } },
{ "type": "Feature", "properties": { "name": "Tibur", "t": 304 }, "geometry": { "type": "Point", "coordinates": [ 12.7955, 41.9638 ] } },
{ "type": "Feature", "properties": { "name": "Tres Tabernae", "t": 200 }, "geometry": { "type": "Point", "coordinates": [ 12.875, 41.625 ] } },
{ "type": "Feature", "properties": { "name": "Beneventum", "t": 304 }, "geometry": { "type": "Point", "coordinates": [ 14.7802, 41.1315 ] } },
{ "type": "Feature", "properties": { "name": "Caieta", "t": 304 }, "geometry": { "type": "Point", "coordinates": [ 13.571, 41.2141 ] } },
{ "type": "Feature", "properties": { "name": "Capua", "t": 304 }, "geometry": { "type": "Point", "coordinates": [ 14.2502, 41.0861 ] } },
{ "type": "Feature", "properties": { "name": "Cumae", "t": 304 }, "geometry": { "type": "Point", "coordinates": [ 14.0599, 40.8457 ] } },
{ "type": "Feature", "properties": { "name": "Puteoli", "t": 100 }, "geometry": { "type": "Point", "coordinates": [ 14.1209, 40.8244 ] } },
{ "type": "Feature", "properties": { "name": "Ferentinum", "t": 304 }, "geometry": { "type": "Point", "coordinates": [ 13.2534, 41.6927 ] } },
{ "type": "Feature", "properties": { "name": "Fundi", "t": 304 }, "geometry": { "type": "Point", "coordinates": [ 13.4301, 41.3563 ] } },
{ "type": "Feature", "properties": { "name": "Misenum", "t": 304 }, "geometry": { "type": "Point", "coordinates": [ 14.0849, 40.7863 ] } },
{ "type": "Feature", "properties": { "name": "Nola", "t": 304 }, "geometry": { "type": "Point", "coordinates": [ 14.5245, 40.9268 ] } },
{ "type": "Feature", "properties": { "name": "Nuceria", "t": 304 }, "geometry": { "type": "Point", "coordinates": [ 14.6739, 40.7431 ] } },
{ "type": "Feature", "properties": { "name": "Neapolis", "t": 200 }, "geometry": { "type": "Point", "coordinates": [ 14.2529, 40.84 ] } },
{ "type": "Feature", "properties": { "name": "Salernum", "t": 304 }, "geometry": { "type": "Point", "coordinates": [ 14.7659, 40.678 ] } },
{ "type": "Feature", "properties": { "name": "Stabiae", "t": 304 }, "geometry": { "type": "Point", "coordinates": [ 14.4927, 40.6998 ] } },
{ "type": "Feature", "properties": { "name": "Teanum", "t": 304 }, "geometry": { "type": "Point", "coordinates": [ 14.0701, 41.2503 ] } },
{ "type": "Feature", "properties": { "name": "Arpi", "t": 304 }, "geometry": { "type": "Point", "coordinates": [ 15.5554, 41.4757 ] } },
{ "type": "Feature", "properties": { "name": "Brundisium", "t": 304 }, "geometry": { "type": "Point", "coordinates": [ 17.9429, 40.6387 ] } },
{ "type": "Feature", "properties": { "name": "Potentia", "t": 304 }, "geometry": { "type": "Point", "coordinates": [ 15.8017, 40.6376 ] } },
{ "type": "Feature", "properties": { "name": "Sipontum", "t": 304 }, "geometry": { "type": "Point", "coordinates": [ 15.8929, 41.6076 ] } },
{ "type": "Feature", "properties": { "name": "Tranum", "t": 304 }, "geometry": { "type": "Point", "coordinates": [ 16.4176, 41.2755 ] } },
{ "type": "Feature", "properties": { "name": "Agrigentum", "t": 304 }, "geometry": { "type": "Point", "coordinates": [ 13.5887, 37.2907 ] } },
{ "type": "Feature", "properties": { "name": "Catana", "t": 304 }, "geometry": { "type": "Point", "coordinates": [ 15.0866, 37.5052 ] } },
{ "type": "Feature", "properties": { "name": "Leontini", "t": 304 }, "geometry": { "type": "Point", "coordinates": [ 14.9981, 37.2855 ] } },
{ "type": "Feature", "properties": { "name": "Megara", "t": 304 }, "geometry": { "type": "Point", "coordinates": [ 15.1818, 37.2037 ] } },
{ "type": "Feature", "properties": { "name": "Syracusae", "t": 200 }, "geometry": { "type": "Point", "coordinates": [ 15.284, 37.0699 ] } },
{ "type": "Feature", "properties": { "name": "Tauromenium", "t": 304 }, "geometry": { "type": "Point", "coordinates": [ 15.2921, 37.8524 ] } },
{ "type": "Feature", "properties": { "name": "Messana", "t": 304 }, "geometry": { "type": "Point", "coordinates": [ 15.5566, 38.1923 ] } },
{ "type": "Feature", "properties": { "name": "Carales", "t": 304 }, "geometry": { "type": "Point", "coordinates": [ 9.1095, 39.2149 ] } },
{ "type": "Feature", "properties": { "name": "Sulci", "t": 304 }, "geometry": { "type": "Point", "coordinates": [ 8.4547, 39.0617 ] } },
{ "type": "Feature", "properties": { "name": "Scupi", "t": 304 }, "geometry": { "type": "Point", "coordinates": [ 21.4125, 42.0084 ] } },
{ "type": "Feature", "properties": { "name": "Beroea", "t": 200 }, "geometry": { "type": "Point", "coordinates": [ 22.2008, 40.5209 ] } },
{ "type": "Feature", "properties": { "name": "Edessa", "t": 100 }, "geometry": { "type": "Point", "coordinates": [ 22.054, 40.7997 ] } },
{ "type": "Feature", "properties": { "name": "Pydna", "t": 304 }, "geometry": { "type": "Point", "coordinates": [ 22.5601, 40.395 ] } },
{ "type": "Feature", "properties": { "name": "Stobi", "t": 304 }, "geometry": { "type": "Point", "coordinates": [ 21.9763, 41.542 ] } },
{ "type": "Feature", "properties": { "name": "Thessalonice", "t": 100 }, "geometry": { "type": "Point", "coordinates": [ 22.9516, 40.6341 ] } },
{ "type": "Feature", "properties": { "name": "Amphipolis", "t": 304 }, "geometry": { "type": "Point", "coordinates": [ 23.847, 40.822 ] } },
{ "type": "Feature", "properties": { "name": "Adrianopolis", "t": 304 }, "geometry": { "type": "Point", "coordinates": [ 26.5629, 41.6765 ] } },
{ "type": "Feature", "properties": { "name": "Philippi", "t": 100 }, "geometry": { "type": "Point", "coordinates": [ 24.2859, 41.0125 ] } },
{ "type": "Feature", "properties": { "name": "Lampsacus", "t": 304 }, "geometry": { "type": "Point", "coordinates": [ 26.6992, 40.3467 ] } },
{ "type": "Feature", "properties": { "name": "Traianopolis", "t": 304 }, "geometry": { "type": "Point", "coordinates": [ 26.0572, 40.8588 ] } },
{ "type": "Feature", "properties": { "name": "Apollonia", "t": 200 }, "geometry": { "type": "Point", "coordinates": [ 28.6771, 40.1805 ] } },
{ "type": "Feature", "properties": { "name": "Bizya", "t": 304 }, "geometry": { "type": "Point", "coordinates": [ 27.7653, 41.5727 ] } },
{ "type": "Feature", "properties": { "name": "Apamea", "t": 304 }, "geometry": { "type": "Point", "coordinates": [ 28.8827, 40.3756 ] } },
{ "type": "Feature", "properties": { "name": "Cyzicus", "t": 304 }, "geometry": { "type": "Point", "coordinates": [ 27.8832, 40.3856 ] } },
{ "type": "Feature", "properties": { "name": "Druzipara", "t": 304 }, "geometry": { "type": "Point", "coordinates": [ 27.544, 41.3001 ] } },
{ "type": "Feature", "properties": { "name": "Caesarea", "t": 304 }, "geometry": { "type": "Point", "coordinates": [ 28.9051, 40.1773 ] } },
{ "type": "Feature", "properties": { "name": "Nicaea", "t": 304 }, "geometry": { "type": "Point", "coordinates": [ 29.7143, 40.4292 ] } },
{ "type": "Feature", "properties": { "name": "Heraclea", "t": 304 }, "geometry": { "type": "Point", "coordinates": [ 27.1811, 40.6381 ] } },
{ "type": "Feature", "properties": { "name": "Nicomedia", "t": 200 }, "geometry": { "type": "Point", "coordinates": [ 29.9199, 40.7652 ] } },
{ "type": "Feature", "properties": { "name": "Parium", "t": 200 }, "geometry": { "type": "Point", "coordinates": [ 40.4205, 27.0691 ] } },
{ "type": "Feature", "properties": { "name": "Prusa", "t": 304 }, "geometry": { "type": "Point", "coordinates": [ 29.0638, 40.1829 ] } },
{ "type": "Feature", "properties": { "name": "Cius", "t": 304 }, "geometry": { "type": "Point", "coordinates": [ 29.1564, 40.4325 ] } },
{ "type": "Feature", "properties": { "name": "Byzantium", "t": 200 }, "geometry": { "type": "Point", "coordinates": [ 28.9739, 41.0059 ] } },
{ "type": "Feature", "properties": { "name": "Chalcedon", "t": 304 }, "geometry": { "type": "Point", "coordinates": [ 29.0258, 40.9834 ] } },
{ "type": "Feature", "properties": { "name": "Chrysopolis", "t": 304 }, "geometry": { "type": "Point", "coordinates": [ 29.0129, 41.0206 ] } },
{ "type": "Feature", "properties": { "name": "Corcyra", "t": 304 }, "geometry": { "type": "Point", "coordinates": [ 19.9156, 39.6063 ] } },
{ "type": "Feature", "properties": { "name": "Nicopolis", "t": 100 }, "geometry": { "type": "Point", "coordinates": [ 20.736, 39.0234 ] } },
{ "type": "Feature", "properties": { "name": "Same", "t": 200 }, "geometry": { "type": "Point", "coordinates": [ 20.6589, 38.2546 ] } },
{ "type": "Feature", "properties": { "name": "Chalcis", "t": 304 }, "geometry": { "type": "Point", "coordinates": [ 23.6432, 38.5494 ] } },
{ "type": "Feature", "properties": { "name": "Larissa", "t": 200 }, "geometry": { "type": "Point", "coordinates": [ 22.4243, 39.6361 ] } },
{ "type": "Feature", "properties": { "name": "Metropolis", "t": 304 }, "geometry": { "type": "Point", "coordinates": [ 21.8387, 39.3386 ] } },
{ "type": "Feature", "properties": { "name": "Thebae", "t": 304 }, "geometry": { "type": "Point", "coordinates": [ 22.7665, 39.2708 ] } },
{ "type": "Feature", "properties": { "name": "Tricca", "t": 304 }, "geometry": { "type": "Point", "coordinates": [ 21.783, 39.5689 ] } },
{ "type": "Feature", "properties": { "name": "Troas", "t": 100 }, "geometry": { "type": "Point", "coordinates": [ 26.1547, 39.7565 ] } },
{ "type": "Feature", "properties": { "name": "Assus", "t": 304 }, "geometry": { "type": "Point", "coordinates": [ 26.3384, 39.4911 ] } },
{ "type": "Feature", "properties": { "name": "Chius", "t": 304 }, "geometry": { "type": "Point", "coordinates": [ 26.1342, 38.3764 ] } },
{ "type": "Feature", "properties": { "name": "Hephaestia", "t": 304 }, "geometry": { "type": "Point", "coordinates": [ 25.3223, 39.9655 ] } },
{ "type": "Feature", "properties": { "name": "Hierocaesarea", "t": 304 }, "geometry": { "type": "Point", "coordinates": [ 27.7877, 38.7569 ] } },
{ "type": "Feature", "properties": { "name": "Hypaepa", "t": 304 }, "geometry": { "type": "Point", "coordinates": [ 27.9629, 38.2485 ] } },
{ "type": "Feature", "properties": { "name": "Ilium", "t": 304 }, "geometry": { "type": "Point", "coordinates": [ 26.2518, 39.9558 ] } },
{ "type": "Feature", "properties": { "name": "Mytilene", "t": 304 }, "geometry": { "type": "Point", "coordinates": [ 26.5349, 39.2179 ] } },
{ "type": "Feature", "properties": { "name": "Smyrna", "t": 100 }, "geometry": { "type": "Point", "coordinates": [ 27.1478, 38.4409 ] } },
{ "type": "Feature", "properties": { "name": "Pergamum", "t": 100 }, "geometry": { "type": "Point", "coordinates": [ 27.1847, 39.131 ] } },
{ "type": "Feature", "properties": { "name": "Philadelphia", "t": 100 }, "geometry": { "type": "Point", "coordinates": [ 28.5238, 38.3273 ] } },
{ "type": "Feature", "properties": { "name": "Sardes", "t": 100 }, "geometry": { "type": "Point", "coordinates": [ 28.0403, 38.4883 ] } },
{ "type": "Feature", "properties": { "name": "Scepsis", "t": 200 }, "geometry": { "type": "Point", "coordinates": [ 26.688, 39.8255 ] } },
{ "type": "Feature", "properties": { "name": "Thyatira", "t": 100 }, "geometry": { "type": "Point", "coordinates": [ 27.8449, 38.9107 ] } },
{ "type": "Feature", "properties": { "name": "Aurelianopolis", "t": 304 }, "geometry": { "type": "Point", "coordinates": [ 27.8778, 38.4762 ] } },
{ "type": "Feature", "properties": { "name": "Boeae", "t": 304 }, "geometry": { "type": "Point", "coordinates": [ 23.0623, 36.5282 ] } },
{ "type": "Feature", "properties": { "name": "Corinthus", "t": 100 }, "geometry": { "type": "Point", "coordinates": [ 22.8792, 37.906 ] } },
{ "type": "Feature", "properties": { "name": "Patrae", "t": 200 }, "geometry": { "type": "Point", "coordinates": [ 21.7349, 38.2488 ] } },
{ "type": "Feature", "properties": { "name": "Lacedaemon", "t": 200 }, "geometry": { "type": "Point", "coordinates": [ 22.4294, 37.0785 ] } },
{ "type": "Feature", "properties": { "name": "Aegina", "t": 100 }, "geometry": { "type": "Point", "coordinates": [ 23.4285, 37.7501 ] } },
{ "type": "Feature", "properties": { "name": "Athenae", "t": 100 }, "geometry": { "type": "Point", "coordinates": [ 23.7225, 37.9746 ] } },
{ "type": "Feature", "properties": { "name": "Gortyna", "t": 200 }, "geometry": { "type": "Point", "coordinates": [ 24.9469, 35.0621 ] } },
{ "type": "Feature", "properties": { "name": "Heraclea", "t": 304 }, "geometry": { "type": "Point", "coordinates": [ 25.75, 35.25 ] } },
{ "type": "Feature", "properties": { "name": "Cnossus", "t": 200 }, "geometry": { "type": "Point", "coordinates": [ 25.161, 35.2983 ] } },
{ "type": "Feature", "properties": { "name": "Panormus", "t": 304 }, "geometry": { "type": "Point", "coordinates": [ 24.75, 35.25 ] } },
{ "type": "Feature", "properties": { "name": "Rhodus", "t": 304 }, "geometry": { "type": "Point", "coordinates": [ 27.9641, 36.1956 ] } },
{ "type": "Feature", "properties": { "name": "Aneia", "t": 304 }, "geometry": { "type": "Point", "coordinates": [ 27.2764, 37.8019 ] } },
{ "type": "Feature", "properties": { "name": "Ephesus", "t": 100 }, "geometry": { "type": "Point", "coordinates": [ 27.3518, 37.9458 ] } },
{ "type": "Feature", "properties": { "name": "Cos", "t": 304 }, "geometry": { "type": "Point", "coordinates": [ 27.2871, 36.893 ] } },
{ "type": "Feature", "properties": { "name": "Magnesia", "t": 100 }, "geometry": { "type": "Point", "coordinates": [ 27.526, 37.8505 ] } },
{ "type": "Feature", "properties": { "name": "Miletus", "t": 100 }, "geometry": { "type": "Point", "coordinates": [ 27.2776, 37.5197 ] } },
{ "type": "Feature", "properties": { "name": "Tralles", "t": 100 }, "geometry": { "type": "Point", "coordinates": [ 27.8339, 37.8598 ] } },
{ "type": "Feature", "properties": { "name": "Aezani", "t": 304 }, "geometry": { "type": "Point", "coordinates": [ 29.6145, 39.1969 ] } },
{ "type": "Feature", "properties": { "name": "Acmonia", "t": 304 }, "geometry": { "type": "Point", "coordinates": [ 38.6601, 29.7734 ] } },
{ "type": "Feature", "properties": { "name": "Amorium", "t": 304 }, "geometry": { "type": "Point", "coordinates": [ 31.2999, 39.0273 ] } },
{ "type": "Feature", "properties": { "name": "Ancyra Sideras", "t": 304 }, "geometry": { "type": "Point", "coordinates": [ 28.8551, 39.1558 ] } },
{ "type": "Feature", "properties": { "name": "Antiochia Pisidiae", "t": 100 }, "geometry": { "type": "Point", "coordinates": [ 31.1894, 38.3052 ] } },
{ "type": "Feature", "properties": { "name": "Appia", "t": 304 }, "geometry": { "type": "Point", "coordinates": [ 29.9834, 39.0246 ] } },
{ "type": "Feature", "properties": { "name": "Bagis", "t": 304 }, "geometry": { "type": "Point", "coordinates": [ 29.1608, 38.6575 ] } },
{ "type": "Feature", "properties": { "name": "Blaundus", "t": 304 }, "geometry": { "type": "Point", "coordinates": [ 29.2098, 38.3573 ] } },
{ "type": "Feature", "properties": { "name": "Bruzos", "t": 304 }, "geometry": { "type": "Point", "coordinates": [ 30.1754, 38.531 ] } },
{ "type": "Feature", "properties": { "name": "Dorylaeum", "t": 304 }, "geometry": { "type": "Point", "coordinates": [ 30.5168, 39.7749 ] } },
{ "type": "Feature", "properties": { "name": "Eucarpia", "t": 304 }, "geometry": { "type": "Point", "coordinates": [ 30.1064, 38.4824 ] } },
{ "type": "Feature", "properties": { "name": "Eu.", "t": 200 }, "geometry": { "type": "Point", "coordinates": [ 29.8486, 38.32 ] } },
{ "type": "Feature", "properties": { "name": "Hadrianopolis", "t": 304 }, "geometry": { "type": "Point", "coordinates": [ 28.9989, 39.9061 ] } },
{ "type": "Feature", "properties": { "name": "Hadrianopolis", "t": 304 }, "geometry": { "type": "Point", "coordinates": [ 31.6396, 38.2262 ] } },
{ "type": "Feature", "properties": { "name": "Hieropolis", "t": 200 }, "geometry": { "type": "Point", "coordinates": [ 30.1977, 38.4618 ] } },
{ "type": "Feature", "properties": { "name": "Cotyaeum", "t": 304 }, "geometry": { "type": "Point", "coordinates": [ 29.9822, 39.4154 ] } },
{ "type": "Feature", "properties": { "name": "Metropolis", "t": 304 }, "geometry": { "type": "Point", "coordinates": [ 30.4906, 38.2412 ] } },
{ "type": "Feature", "properties": { "name": "Moxiana", "t": 304 }, "geometry": { "type": "Point", "coordinates": [ 29.75, 38.75 ] } },
{ "type": "Feature", "properties": { "name": "Otrus", "t": 200 }, "geometry": { "type": "Point", "coordinates": [ 29.9588, 38.4515 ] } },
{ "type": "Feature", "properties": { "name": "Philomelium", "t": 304 }, "geometry": { "type": "Point", "coordinates": [ 38.3567, 31.4298 ] } },
{ "type": "Feature", "properties": { "name": "Prymnessus", "t": 304 }, "geometry": { "type": "Point", "coordinates": [ 30.5694, 38.6978 ] } },
{ "type": "Feature", "properties": { "name": "Silandus", "t": 304 }, "geometry": { "type": "Point", "coordinates": [ 28.826, 38.7515 ] } },
{ "type": "Feature", "properties": { "name": "Synnada", "t": 304 }, "geometry": { "type": "Point", "coordinates": [ 30.548, 38.5353 ] } },
{ "type": "Feature", "properties": { "name": "Tiberiopolis", "t": 304 }, "geometry": { "type": "Point", "coordinates": [ 29.4081, 39.4592 ] } },
{ "type": "Feature", "properties": { "name": "Tr.", "t": 304 }, "geometry": { "type": "Point", "coordinates": [ 29.6199, 38.6896 ] } },
{ "type": "Feature", "properties": { "name": "Pepuza", "t": 200 }, "geometry": { "type": "Point", "coordinates": [ 39.2189, 30.0977 ] } },
{ "type": "Feature", "properties": { "name": "Tymion", "t": 200 }, "geometry": { "type": "Point", "coordinates": [ 27.5, 37.75 ] } },
{ "type": "Feature", "properties": { "name": "Ancyra", "t": 304 }, "geometry": { "type": "Point", "coordinates": [ 32.8006, 39.972 ] } },
{ "type": "Feature", "properties": { "name": "Andabilis", "t": 304 }, "geometry": { "type": "Point", "coordinates": [ 34.6735, 38.0395 ] } },
{ "type": "Feature", "properties": { "name": "Gadamava", "t": 304 }, "geometry": { "type": "Point", "coordinates": [ 32.5614, 38.6148 ] } },
{ "type": "Feature", "properties": { "name": "Kolonia (Garsaura)", "t": 304 }, "geometry": { "type": "Point", "coordinates": [ 33.9504, 38.4021 ] } },
{ "type": "Feature", "properties": { "name": "Cinna", "t": 304 }, "geometry": { "type": "Point", "coordinates": [ 33.033, 39.2269 ] } },
{ "type": "Feature", "properties": { "name": "Laodicea Catacecaumene", "t": 304 }, "geometry": { "type": "Point", "coordinates": [ 32.374, 38.1922 ] } },
{ "type": "Feature", "properties": { "name": "Parnassus", "t": 304 }, "geometry": { "type": "Point", "coordinates": [ 33.5701, 38.9918 ] } },
{ "type": "Feature", "properties": { "name": "Tavium", "t": 304 }, "geometry": { "type": "Point", "coordinates": [ 34.4481, 39.8889 ] } },
{ "type": "Feature", "properties": { "name": "Arabissus", "t": 304 }, "geometry": { "type": "Point", "coordinates": [ 36.9117, 38.246 ] } },
{ "type": "Feature", "properties": { "name": "Comana Chruse", "t": 304 }, "geometry": { "type": "Point", "coordinates": [ 36.3233, 38.3309 ] } },
{ "type": "Feature", "properties": { "name": "Caesarea Cappadociae", "t": 200 }, "geometry": { "type": "Point", "coordinates": [ 35.485, 38.728 ] } },
{ "type": "Feature", "properties": { "name": "Melitene", "t": 200 }, "geometry": { "type": "Point", "coordinates": [ 38.3379, 38.3649 ] } },
{ "type": "Feature", "properties": { "name": "Sebaste", "t": 304 }, "geometry": { "type": "Point", "coordinates": [ 37.0166, 39.749 ] } },
{ "type": "Feature", "properties": { "name": "Sebastopolis", "t": 304 }, "geometry": { "type": "Point", "coordinates": [ 36.0859, 40.0025 ] } },
{ "type": "Feature", "properties": { "name": "Zimara", "t": 304 }, "geometry": { "type": "Point", "coordinates": [ 38.3759, 39.4128 ] } },
{ "type": "Feature", "properties": { "name": "Amblada", "t": 304 }, "geometry": { "type": "Point", "coordinates": [ 31.7386, 37.5186 ] } },
{ "type": "Feature", "properties": { "name": "Sanaus", "t": 304 }, "geometry": { "type": "Point", "coordinates": [ 29.8094, 37.8892 ] } },
{ "type": "Feature", "properties": { "name": "Antiochia ad Maeandrum", "t": 304 }, "geometry": { "type": "Point", "coordinates": [ 28.5683, 37.8678 ] } },
{ "type": "Feature", "properties": { "name": "Apamea", "t": 200 }, "geometry": { "type": "Point", "coordinates": [ 30.1713, 38.07 ] } },
{ "type": "Feature", "properties": { "name": "Apollonias", "t": 304 }, "geometry": { "type": "Point", "coordinates": [ 29.0391, 37.5151 ] } },
{ "type": "Feature", "properties": { "name": "Perdicia", "t": 304 }, "geometry": { "type": "Point", "coordinates": [ 29.1296, 36.5029 ] } },
{ "type": "Feature", "properties": { "name": "Aspendus", "t": 304 }, "geometry": { "type": "Point", "coordinates": [ 31.1702, 36.9391 ] } },
{ "type": "Feature", "properties": { "name": "Attalia", "t": 100 }, "geometry": { "type": "Point", "coordinates": [ 30.7, 36.8903 ] } },
{ "type": "Feature", "properties": { "name": "Baris", "t": 304 }, "geometry": { "type": "Point", "coordinates": [ 30.5241, 37.761 ] } },
{ "type": "Feature", "properties": { "name": "Cybira", "t": 304 }, "geometry": { "type": "Point", "coordinates": [ 29.5017, 37.1641 ] } },
{ "type": "Feature", "properties": { "name": "Colossae", "t": 100 }, "geometry": { "type": "Point", "coordinates": [ 29.2575, 37.7944 ] } },
{ "type": "Feature", "properties": { "name": "Comana", "t": 304 }, "geometry": { "type": "Point", "coordinates": [ 30.3155, 37.3228 ] } },
{ "type": "Feature", "properties": { "name": "Hierapolis", "t": 100 }, "geometry": { "type": "Point", "coordinates": [ 29.1247, 37.9226 ] } },
{ "type": "Feature", "properties": { "name": "Hamanades (Manava)", "t": 304 }, "geometry": { "type": "Point", "coordinates": [ 31.9511, 37.2296 ] } },
{ "type": "Feature", "properties": { "name": "Laodicea", "t": 100 }, "geometry": { "type": "Point", "coordinates": [ 29.1078, 37.8351 ] } },
{ "type": "Feature", "properties": { "name": "Magydus", "t": 304 }, "geometry": { "type": "Point", "coordinates": [ 30.7937, 36.8528 ] } },
{ "type": "Feature", "properties": { "name": "Myra", "t": 200 }, "geometry": { "type": "Point", "coordinates": [ 29.9883, 36.2552 ] } },
{ "type": "Feature", "properties": { "name": "Neapolis", "t": 304 }, "geometry": { "type": "Point", "coordinates": [ 31.4301, 38.0162 ] } },
{ "type": "Feature", "properties": { "name": "Olympus", "t": 304 }, "geometry": { "type": "Point", "coordinates": [ 30.4697, 36.3763 ] } },
{ "type": "Feature", "properties": { "name": "Vasada", "t": 304 }, "geometry": { "type": "Point", "coordinates": [ 31.9244, 37.4952 ] } },
{ "type": "Feature", "properties": { "name": "Panemuteichus", "t": 304 }, "geometry": { "type": "Point", "coordinates": [ 30.5007, 37.2643 ] } },
{ "type": "Feature", "properties": { "name": "Pappa", "t": 304 }, "geometry": { "type": "Point", "coordinates": [ 31.9234, 37.9042 ] } },
{ "type": "Feature", "properties": { "name": "Patara", "t": 304 }, "geometry": { "type": "Point", "coordinates": [ 29.3146, 36.2624 ] } },
{ "type": "Feature", "properties": { "name": "Perge", "t": 100 }, "geometry": { "type": "Point", "coordinates": [ 30.8547, 36.9618 ] } },
{ "type": "Feature", "properties": { "name": "Seleucia", "t": 304 }, "geometry": { "type": "Point", "coordinates": [ 30.6215, 37.8959 ] } },
{ "type": "Feature", "properties": { "name": "Side", "t": 304 }, "geometry": { "type": "Point", "coordinates": [ 31.3941, 36.7723 ] } },
{ "type": "Feature", "properties": { "name": "Termessus", "t": 304 }, "geometry": { "type": "Point", "coordinates": [ 30.4672, 36.983 ] } },
{ "type": "Feature", "properties": { "name": "Tripolis", "t": 304 }, "geometry": { "type": "Point", "coordinates": [ 28.9609, 38.0505 ] } },
{ "type": "Feature", "properties": { "name": "Adana", "t": 304 }, "geometry": { "type": "Point", "coordinates": [ 35.3387, 36.9866 ] } },
{ "type": "Feature", "properties": { "name": "Antiochia ad Cragum", "t": 304 }, "geometry": { "type": "Point", "coordinates": [ 32.4291, 36.1533 ] } },
{ "type": "Feature", "properties": { "name": "Barata", "t": 304 }, "geometry": { "type": "Point", "coordinates": [ 33.1088, 37.4427 ] } },
{ "type": "Feature", "properties": { "name": "Cybistra", "t": 304 }, "geometry": { "type": "Point", "coordinates": [ 34.1528, 37.5897 ] } },
{ "type": "Feature", "properties": { "name": "Derbe", "t": 100 }, "geometry": { "type": "Point", "coordinates": [ 33.2934, 37.3739 ] } },
{ "type": "Feature", "properties": { "name": "Diocaesarea", "t": 304 }, "geometry": { "type": "Point", "coordinates": [ 33.9207, 36.5814 ] } },
{ "type": "Feature", "properties": { "name": "Iconium", "t": 100 }, "geometry": { "type": "Point", "coordinates": [ 32.5042, 37.8596 ] } },
{ "type": "Feature", "properties": { "name": "Ilistra", "t": 304 }, "geometry": { "type": "Point", "coordinates": [ 33.0242, 37.1968 ] } },
{ "type": "Feature", "properties": { "name": "Isaura", "t": 304 }, "geometry": { "type": "Point", "coordinates": [ 32.25, 37.25 ] } },
{ "type": "Feature", "properties": { "name": "Laranda", "t": 200 }, "geometry": { "type": "Point", "coordinates": [ 33.2242, 37.1769 ] } },
{ "type": "Feature", "properties": { "name": "Lystra", "t": 100 }, "geometry": { "type": "Point", "coordinates": [ 32.3493, 37.5812 ] } },
{ "type": "Feature", "properties": { "name": "Claudiopolis", "t": 304 }, "geometry": { "type": "Point", "coordinates": [ 33.4405, 36.6416 ] } },
{ "type": "Feature", "properties": { "name": "Seleucia", "t": 100 }, "geometry": { "type": "Point", "coordinates": [ 33.9215, 36.3793 ] } },
{ "type": "Feature", "properties": { "name": "Synedra", "t": 304 }, "geometry": { "type": "Point", "coordinates": [ 32.1693, 36.4194 ] } },
{ "type": "Feature", "properties": { "name": "Tarsus", "t": 100 }, "geometry": { "type": "Point", "coordinates": [ 34.8973, 36.9159 ] } },
{ "type": "Feature", "properties": { "name": "Tyana", "t": 304 }, "geometry": { "type": "Point", "coordinates": [ 34.5663, 37.8587 ] } },
{ "type": "Feature", "properties": { "name": "Aegea", "t": 100 }, "geometry": { "type": "Point", "coordinates": [ 35.7895, 36.7697 ] } },
{ "type": "Feature", "properties": { "name": "Alexandria", "t": 200 }, "geometry": { "type": "Point", "coordinates": [ 36.1733, 36.5842 ] } },
{ "type": "Feature", "properties": { "name": "Anazarbus", "t": 304 }, "geometry": { "type": "Point", "coordinates": [ 35.9063, 37.2509 ] } },
{ "type": "Feature", "properties": { "name": "Antiochia", "t": 100 }, "geometry": { "type": "Point", "coordinates": [ 36.1617, 36.2014 ] } },
{ "type": "Feature", "properties": { "name": "Beroia", "t": 304 }, "geometry": { "type": "Point", "coordinates": [ 37.1568, 36.1993 ] } },
{ "type": "Feature", "properties": { "name": "Carrhae", "t": 304 }, "geometry": { "type": "Point", "coordinates": [ 39.0302, 36.8655 ] } },
{ "type": "Feature", "properties": { "name": "Cyrrhus", "t": 304 }, "geometry": { "type": "Point", "coordinates": [ 36.9527, 36.7397 ] } },
{ "type": "Feature", "properties": { "name": "Doliche", "t": 304 }, "geometry": { "type": "Point", "coordinates": [ 37.36, 37.1537 ] } },
{ "type": "Feature", "properties": { "name": "Edessa", "t": 100 }, "geometry": { "type": "Point", "coordinates": [ 38.7814, 37.1626 ] } },
{ "type": "Feature", "properties": { "name": "Neronias", "t": 304 }, "geometry": { "type": "Point", "coordinates": [ 36.467, 37.2514 ] } },
{ "type": "Feature", "properties": { "name": "Macedonopolis", "t": 304 }, "geometry": { "type": "Point", "coordinates": [ 37.878, 37.0982 ] } },
{ "type": "Feature", "properties": { "name": "Gabula", "t": 304 }, "geometry": { "type": "Point", "coordinates": [ 37.5161, 36.0857 ] } },
{ "type": "Feature", "properties": { "name": "Germanicia", "t": 304 }, "geometry": { "type": "Point", "coordinates": [ 36.9253, 37.5867 ] } },
{ "type": "Feature", "properties": { "name": "Gindarus", "t": 304 }, "geometry": { "type": "Point", "coordinates": [ 36.7021, 36.3841 ] } },
{ "type": "Feature", "properties": { "name": "Hierapolis", "t": 304 }, "geometry": { "type": "Point", "coordinates": [ 37.9555, 36.5262 ] } },
{ "type": "Feature", "properties": { "name": "Castabala", "t": 304 }, "geometry": { "type": "Point", "coordinates": [ 36.1873, 37.1764 ] } },
{ "type": "Feature", "properties": { "name": "Seleucia Pieria", "t": 200 }, "geometry": { "type": "Point", "coordinates": [ 35.9286, 36.1213 ] } },
{ "type": "Feature", "properties": { "name": "Mopsuestia", "t": 304 }, "geometry": { "type": "Point", "coordinates": [ 35.6147, 36.9674 ] } },
{ "type": "Feature", "properties": { "name": "Epiphania", "t": 304 }, "geometry": { "type": "Point", "coordinates": [ 36.1644, 36.9653 ] } },
{ "type": "Feature", "properties": { "name": "Perrhe", "t": 304 }, "geometry": { "type": "Point", "coordinates": [ 38.2865, 37.7782 ] } },
{ "type": "Feature", "properties": { "name": "Flavias", "t": 200 }, "geometry": { "type": "Point", "coordinates": [ 36.1016, 37.3665 ] } },
{ "type": "Feature", "properties": { "name": "Rhossus", "t": 200 }, "geometry": { "type": "Point", "coordinates": [ 35.8877, 36.4196 ] } },
{ "type": "Feature", "properties": { "name": "Samosata", "t": 200 }, "geometry": { "type": "Point", "coordinates": [ 38.5008, 37.5451 ] } },
{ "type": "Feature", "properties": { "name": "Zeugma", "t": 304 }, "geometry": { "type": "Point", "coordinates": [ 37.8698, 37.0582 ] } },
{ "type": "Feature", "properties": { "name": "Epiphania", "t": 304 }, "geometry": { "type": "Point", "coordinates": [ 36.753, 35.1486 ] } },
{ "type": "Feature", "properties": { "name": "Antaradus", "t": 304 }, "geometry": { "type": "Point", "coordinates": [ 35.8837, 34.8974 ] } },
{ "type": "Feature", "properties": { "name": "Aradus", "t": 200 }, "geometry": { "type": "Point", "coordinates": [ 35.8594, 34.8584 ] } },
{ "type": "Feature", "properties": { "name": "Arethusa", "t": 304 }, "geometry": { "type": "Point", "coordinates": [ 36.7351, 34.9602 ] } },
{ "type": "Feature", "properties": { "name": "Neocaesarea", "t": 304 }, "geometry": { "type": "Point", "coordinates": [ 38.1986, 35.9763 ] } },
{ "type": "Feature", "properties": { "name": "Balaneae", "t": 304 }, "geometry": { "type": "Point", "coordinates": [ 35.9433, 35.1747 ] } },
{ "type": "Feature", "properties": { "name": "Byblus", "t": 304 }, "geometry": { "type": "Point", "coordinates": [ 35.6463, 34.1193 ] } },
{ "type": "Feature", "properties": { "name": "Gabala", "t": 304 }, "geometry": { "type": "Point", "coordinates": [ 35.9223, 35.3781 ] } },
{ "type": "Feature", "properties": { "name": "Emesa", "t": 304 }, "geometry": { "type": "Point", "coordinates": [ 36.7193, 34.7377 ] } },
{ "type": "Feature", "properties": { "name": "Laodicea", "t": 200 }, "geometry": { "type": "Point", "coordinates": [ 35.7936, 35.6409 ] } },
{ "type": "Feature", "properties": { "name": "Larissa", "t": 304 }, "geometry": { "type": "Point", "coordinates": [ 36.5839, 35.2762 ] } },
{ "type": "Feature", "properties": { "name": "Orthosia", "t": 200 }, "geometry": { "type": "Point", "coordinates": [ 35.9548, 34.5109 ] } },
{ "type": "Feature", "properties": { "name": "Palmyra", "t": 304 }, "geometry": { "type": "Point", "coordinates": [ 38.2652, 34.5533 ] } },
{ "type": "Feature", "properties": { "name": "Paltus", "t": 200 }, "geometry": { "type": "Point", "coordinates": [ 35.9274, 35.2727 ] } },
{ "type": "Feature", "properties": { "name": "Apamea", "t": 200 }, "geometry": { "type": "Point", "coordinates": [ 36.4009, 35.5531 ] } },
{ "type": "Feature", "properties": { "name": "Raphaneae", "t": 304 }, "geometry": { "type": "Point", "coordinates": [ 36.393, 34.9664 ] } },
{ "type": "Feature", "properties": { "name": "Tripolis", "t": 100 }, "geometry": { "type": "Point", "coordinates": [ 35.812, 34.449 ] } },
{ "type": "Feature", "properties": { "name": "Aere Bataneae", "t": 304 }, "geometry": { "type": "Point", "coordinates": [ 36.1853, 33.0711 ] } },
{ "type": "Feature", "properties": { "name": "Ptolemais", "t": 100 }, "geometry": { "type": "Point", "coordinates": [ 35.0798, 32.9241 ] } },
{ "type": "Feature", "properties": { "name": "Berytus", "t": 304 }, "geometry": { "type": "Point", "coordinates": [ 35.5112, 33.8986 ] } },
{ "type": "Feature", "properties": { "name": "Bostra", "t": 304 }, "geometry": { "type": "Point", "coordinates": [ 36.4818, 32.5163 ] } },
{ "type": "Feature", "properties": { "name": "Damascus", "t": 100 }, "geometry": { "type": "Point", "coordinates": [ 36.3072, 33.5114 ] } },
{ "type": "Feature", "properties": { "name": "Dionysias", "t": 304 }, "geometry": { "type": "Point", "coordinates": [ 36.5653, 32.7071 ] } },
{ "type": "Feature", "properties": { "name": "Gadara", "t": 304 }, "geometry": { "type": "Point", "coordinates": [ 35.6781, 32.6559 ] } },
{ "type": "Feature", "properties": { "name": "Capitolias", "t": 304 }, "geometry": { "type": "Point", "coordinates": [ 35.8583, 32.5986 ] } },
{ "type": "Feature", "properties": { "name": "Capharnaum", "t": 100 }, "geometry": { "type": "Point", "coordinates": [ 35.5763, 32.8811 ] } },
{ "type": "Feature", "properties": { "name": "Maximinianopolis", "t": 304 }, "geometry": { "type": "Point", "coordinates": [ 35.1864, 32.5753 ] } },
{ "type": "Feature", "properties": { "name": "Flavia Neapolis", "t": 304 }, "geometry": { "type": "Point", "coordinates": [ 35.2629, 32.2187 ] } },
{ "type": "Feature", "properties": { "name": "Paneas", "t": 304 }, "geometry": { "type": "Point", "coordinates": [ 35.6935, 33.2475 ] } },
{ "type": "Feature", "properties": { "name": "Pella", "t": 100 }, "geometry": { "type": "Point", "coordinates": [ 35.6146, 32.4497 ] } },
{ "type": "Feature", "properties": { "name": "Phaeno", "t": 304 }, "geometry": { "type": "Point", "coordinates": [ 36.3874, 33.1311 ] } },
{ "type": "Feature", "properties": { "name": "Sebaste", "t": 100 }, "geometry": { "type": "Point", "coordinates": [ 35.1904, 32.2765 ] } },
{ "type": "Feature", "properties": { "name": "Scythopolis", "t": 304 }, "geometry": { "type": "Point", "coordinates": [ 35.4775, 32.6086 ] } },
{ "type": "Feature", "properties": { "name": "Sidon", "t": 100 }, "geometry": { "type": "Point", "coordinates": [ 35.3712, 33.5602 ] } },
{ "type": "Feature", "properties": { "name": "Caesarea", "t": 100 }, "geometry": { "type": "Point", "coordinates": [ 34.8973, 32.5005 ] } },
{ "type": "Feature", "properties": { "name": "Choba", "t": 304 }, "geometry": { "type": "Point", "coordinates": [ 36.665, 33.6476 ] } },
{ "type": "Feature", "properties": { "name": "Tyrus", "t": 100 }, "geometry": { "type": "Point", "coordinates": [ 35.2038, 33.2698 ] } },
{ "type": "Feature", "properties": { "name": "Azotus", "t": 100 }, "geometry": { "type": "Point", "coordinates": [ 34.6541, 31.7608 ] } },
{ "type": "Feature", "properties": { "name": "Ascalon", "t": 304 }, "geometry": { "type": "Point", "coordinates": [ 34.5459, 31.666 ] } },
{ "type": "Feature", "properties": { "name": "Eleutheropolis", "t": 304 }, "geometry": { "type": "Point", "coordinates": [ 34.891, 31.6143 ] } },
{ "type": "Feature", "properties": { "name": "Bethlehem", "t": 304 }, "geometry": { "type": "Point", "coordinates": [ 35.2021, 31.7123 ] } },
{ "type": "Feature", "properties": { "name": "Eboda", "t": 304 }, "geometry": { "type": "Point", "coordinates": [ 34.769, 30.7971 ] } },
{ "type": "Feature", "properties": { "name": "Nicopolis", "t": 304 }, "geometry": { "type": "Point", "coordinates": [ 34.9894, 31.8393 ] } },
{ "type": "Feature", "properties": { "name": "Gaza", "t": 304 }, "geometry": { "type": "Point", "coordinates": [ 34.4517, 31.5202 ] } },
{ "type": "Feature", "properties": { "name": "Gadara", "t": 304 }, "geometry": { "type": "Point", "coordinates": [ 34.7759, 31.8261 ] } },
{ "type": "Feature", "properties": { "name": "Iericho", "t": 304 }, "geometry": { "type": "Point", "coordinates": [ 35.4439, 31.87 ] } },
{ "type": "Feature", "properties": { "name": "Iamnia", "t": 304 }, "geometry": { "type": "Point", "coordinates": [ 34.7384, 31.8765 ] } },
{ "type": "Feature", "properties": { "name": "Aelia", "t": 100 }, "geometry": { "type": "Point", "coordinates": [ 35.2342, 31.7767 ] } },
{ "type": "Feature", "properties": { "name": "Ioppe", "t": 100 }, "geometry": { "type": "Point", "coordinates": [ 34.7499, 32.0531 ] } },
{ "type": "Feature", "properties": { "name": "Diospolis", "t": 100 }, "geometry": { "type": "Point", "coordinates": [ 34.8924, 31.9583 ] } },
{ "type": "Feature", "properties": { "name": "Maiuma", "t": 304 }, "geometry": { "type": "Point", "coordinates": [ 34.5618, 31.6922 ] } },
{ "type": "Feature", "properties": { "name": "Esbus", "t": 304 }, "geometry": { "type": "Point", "coordinates": [ 35.801, 31.7867 ] } },
{ "type": "Feature", "properties": { "name": "Philadelphia", "t": 304 }, "geometry": { "type": "Point", "coordinates": [ 35.9324, 31.9431 ] } },
{ "type": "Feature", "properties": { "name": "Zoara", "t": 304 }, "geometry": { "type": "Point", "coordinates": [ 35.4818, 31.0273 ] } },
{ "type": "Feature", "properties": { "name": "Zadagatha", "t": 304 }, "geometry": { "type": "Point", "coordinates": [ 35.4928, 30.1707 ] } },
{ "type": "Feature", "properties": { "name": "Ledrae", "t": 304 }, "geometry": { "type": "Point", "coordinates": [ 33.3473, 35.1572 ] } },
{ "type": "Feature", "properties": { "name": "Paphus", "t": 100 }, "geometry": { "type": "Point", "coordinates": [ 32.5791, 34.7053 ] } },
{ "type": "Feature", "properties": { "name": "Salamis", "t": 100 }, "geometry": { "type": "Point", "coordinates": [ 33.9031, 35.18 ] } },
{ "type": "Feature", "properties": { "name": "Tremithus", "t": 304 }, "geometry": { "type": "Point", "coordinates": [ 33.6038, 35.0724 ] } },
{ "type": "Feature", "properties": { "name": "Antipyrgus", "t": 304 }, "geometry": { "type": "Point", "coordinates": [ 23.9614, 32.0765 ] } },
{ "type": "Feature", "properties": { "name": "Chino", "t": 304 }, "geometry": { "type": "Point", "coordinates": [ 29.3407, 30.8511 ] } },
{ "type": "Feature", "properties": { "name": "Paraetonium", "t": 304 }, "geometry": { "type": "Point", "coordinates": [ 27.2368, 31.3501 ] } },
{ "type": "Feature", "properties": { "name": "Alexandria", "t": 100 }, "geometry": { "type": "Point", "coordinates": [ 29.907, 31.1967 ] } },
{ "type": "Feature", "properties": { "name": "Athribis", "t": 304 }, "geometry": { "type": "Point", "coordinates": [ 31.1842, 30.4707 ] } },
{ "type": "Feature", "properties": { "name": "Bubastis", "t": 304 }, "geometry": { "type": "Point", "coordinates": [ 31.5052, 30.579 ] } },
{ "type": "Feature", "properties": { "name": "Busiris", "t": 304 }, "geometry": { "type": "Point", "coordinates": [ 31.2388, 30.9134 ] } },
{ "type": "Feature", "properties": { "name": "Cleopatris", "t": 304 }, "geometry": { "type": "Point", "coordinates": [ 32.5601, 29.9701 ] } },
{ "type": "Feature", "properties": { "name": "Heracleopolis parva", "t": 304 }, "geometry": { "type": "Point", "coordinates": [ 32.1676, 30.9821 ] } },
{ "type": "Feature", "properties": { "name": "Hermopolis parva", "t": 304 }, "geometry": { "type": "Point", "coordinates": [ 30.4708, 31.0337 ] } },
{ "type": "Feature", "properties": { "name": "Leontopolis", "t": 304 }, "geometry": { "type": "Point", "coordinates": [ 31.25, 30.75 ] } },
{ "type": "Feature", "properties": { "name": "Letopolis", "t": 304 }, "geometry": { "type": "Point", "coordinates": [ 31.134, 30.1223 ] } },
{ "type": "Feature", "properties": { "name": "Metelis", "t": 304 }, "geometry": { "type": "Point", "coordinates": [ 30.3754, 31.1204 ] } },
{ "type": "Feature", "properties": { "name": "Naucratis", "t": 200 }, "geometry": { "type": "Point", "coordinates": [ 30.5919, 30.9005 ] } },
{ "type": "Feature", "properties": { "name": "Niciopolis", "t": 304 }, "geometry": { "type": "Point", "coordinates": [ 30.851, 30.4115 ] } },
{ "type": "Feature", "properties": { "name": "Panephysis", "t": 304 }, "geometry": { "type": "Point", "coordinates": [ 31.936, 31.1581 ] } },
{ "type": "Feature", "properties": { "name": "Pelusium", "t": 304 }, "geometry": { "type": "Point", "coordinates": [ 31.0499, 32.6001 ] } },
{ "type": "Feature", "properties": { "name": "Phacusa", "t": 304 }, "geometry": { "type": "Point", "coordinates": [ 31.6722, 30.7205 ] } },
{ "type": "Feature", "properties": { "name": "Pharbaetus", "t": 304 }, "geometry": { "type": "Point", "coordinates": [ 31.6206, 30.7343 ] } },
{ "type": "Feature", "properties": { "name": "Sais", "t": 304 }, "geometry": { "type": "Point", "coordinates": [ 30.7744, 30.9672 ] } },
{ "type": "Feature", "properties": { "name": "Schedia", "t": 304 }, "geometry": { "type": "Point", "coordinates": [ 30.192, 31.1397 ] } },
{ "type": "Feature", "properties": { "name": "Sebennytus", "t": 304 }, "geometry": { "type": "Point", "coordinates": [ 31.24, 30.9641 ] } },
{ "type": "Feature", "properties": { "name": "Tanis", "t": 304 }, "geometry": { "type": "Point", "coordinates": [ 31.8759, 30.9763 ] } },
{ "type": "Feature", "properties": { "name": "Taposiris", "t": 304 }, "geometry": { "type": "Point", "coordinates": [ 29.5191, 30.9461 ] } },
{ "type": "Feature", "properties": { "name": "Thmuis", "t": 304 }, "geometry": { "type": "Point", "coordinates": [ 31.5169, 30.9356 ] } },
{ "type": "Feature", "properties": { "name": "Heracleopolis magna", "t": 304 }, "geometry": { "type": "Point", "coordinates": [ 30.9375, 29.0858 ] } },
{ "type": "Feature", "properties": { "name": "Koma", "t": 304 }, "geometry": { "type": "Point", "coordinates": [ 31.1681, 29.3031 ] } },
{ "type": "Feature", "properties": { "name": "Arsinoe", "t": 304 }, "geometry": { "type": "Point", "coordinates": [ 30.84, 29.315 ] } },
{ "type": "Feature", "properties": { "name": "Cynopolis superior", "t": 304 }, "geometry": { "type": "Point", "coordinates": [ 30.7829, 28.4795 ] } },
{ "type": "Feature", "properties": { "name": "Memphis", "t": 304 }, "geometry": { "type": "Point", "coordinates": [ 31.2551, 29.8495 ] } },
{ "type": "Feature", "properties": { "name": "Musae", "t": 304 }, "geometry": { "type": "Point", "coordinates": [ 30.7137, 28.3038 ] } },
{ "type": "Feature", "properties": { "name": "Oxyrhynchus", "t": 304 }, "geometry": { "type": "Point", "coordinates": [ 30.6262, 28.673 ] } },
{ "type": "Feature", "properties": { "name": "Philadelphia", "t": 304 }, "geometry": { "type": "Point", "coordinates": [ 31.0803, 29.4538 ] } },
{ "type": "Feature", "properties": { "name": "Nilopolis", "t": 304 }, "geometry": { "type": "Point", "coordinates": [ 31.1205, 29.1847 ] } },
{ "type": "Feature", "properties": { "name": "Aila (Aelana)", "t": 304 }, "geometry": { "type": "Point", "coordinates": [ 34.9744, 29.6636 ] } },
{ "type": "Feature", "properties": { "name": "Antinoopolis", "t": 304 }, "geometry": { "type": "Point", "coordinates": [ 30.881, 27.8106 ] } },
{ "type": "Feature", "properties": { "name": "Hermopolis magna", "t": 304 }, "geometry": { "type": "Point", "coordinates": [ 30.8036, 27.7796 ] } },
{ "type": "Feature", "properties": { "name": "Cusae", "t": 304 }, "geometry": { "type": "Point", "coordinates": [ 30.818, 27.4382 ] } },
{ "type": "Feature", "properties": { "name": "Lycopolis", "t": 304 }, "geometry": { "type": "Point", "coordinates": [ 31.1825, 27.1813 ] } },
{ "type": "Feature", "properties": { "name": "Ionopolis", "t": 200 }, "geometry": { "type": "Point", "coordinates": [ 33.766, 41.974 ] } },
{ "type": "Feature", "properties": { "name": "Amastris", "t": 100 }, "geometry": { "type": "Point", "coordinates": [ 32.3856, 41.747 ] } },
{ "type": "Feature", "properties": { "name": "Claudiopolis", "t": 304 }, "geometry": { "type": "Point", "coordinates": [ 31.5859, 40.7562 ] } },
{ "type": "Feature", "properties": { "name": "Gangra", "t": 304 }, "geometry": { "type": "Point", "coordinates": [ 33.564, 40.6244 ] } },
{ "type": "Feature", "properties": { "name": "Juliopolis", "t": 304 }, "geometry": { "type": "Point", "coordinates": [ 31.645, 40.1071 ] } },
{ "type": "Feature", "properties": { "name": "Cromna", "t": 304 }, "geometry": { "type": "Point", "coordinates": [ 32.6511, 41.8382 ] } },
{ "type": "Feature", "properties": { "name": "Cytorus", "t": 304 }, "geometry": { "type": "Point", "coordinates": [ 32.8978, 41.8619 ] } },
{ "type": "Feature", "properties": { "name": "Pompeiopolis", "t": 304 }, "geometry": { "type": "Point", "coordinates": [ 34.1902, 41.5149 ] } },
{ "type": "Feature", "properties": { "name": "Prusias", "t": 304 }, "geometry": { "type": "Point", "coordinates": [ 31.1237, 40.914 ] } },
{ "type": "Feature", "properties": { "name": "Bosphorus", "t": 304 }, "geometry": { "type": "Point", "coordinates": [ 36.4698, 45.3527 ] } },
{ "type": "Feature", "properties": { "name": "Amaseia", "t": 304 }, "geometry": { "type": "Point", "coordinates": [ 35.8292, 40.6658 ] } },
{ "type": "Feature", "properties": { "name": "Amisus", "t": 100 }, "geometry": { "type": "Point", "coordinates": [ 36.3313, 41.2927 ] } },
{ "type": "Feature", "properties": { "name": "Comana Pontica", "t": 304 }, "geometry": { "type": "Point", "coordinates": [ 36.6195, 40.3754 ] } },
{ "type": "Feature", "properties": { "name": "Neocaesarea", "t": 304 }, "geometry": { "type": "Point", "coordinates": [ 37.0201, 40.5892 ] } },
{ "type": "Feature", "properties": { "name": "Nicopolis", "t": 304 }, "geometry": { "type": "Point", "coordinates": [ 38.1435, 40.1486 ] } },
{ "type": "Feature", "properties": { "name": "Pityus", "t": 304 }, "geometry": { "type": "Point", "coordinates": [ 40.3333, 43.1616 ] } },
{ "type": "Feature", "properties": { "name": "Sinope", "t": 100 }, "geometry": { "type": "Point", "coordinates": [ 35.143, 42.0258 ] } },
{ "type": "Feature", "properties": { "name": "Trapezus", "t": 304 }, "geometry": { "type": "Point", "coordinates": [ 39.7233, 41.0043 ] } },
{ "type": "Feature", "properties": { "name": "Zela", "t": 304 }, "geometry": { "type": "Point", "coordinates": [ 35.8915, 40.3046 ] } },
{ "type": "Feature", "properties": { "name": "Nisibis", "t": 200 }, "geometry": { "type": "Point", "coordinates": [ 41.2156, 37.0677 ] } },
{ "type": "Feature", "properties": { "name": "Resaina", "t": 304 }, "geometry": { "type": "Point", "coordinates": [ 40.04, 36.8457 ] } },
{ "type": "Feature", "properties": { "name": "Satala", "t": 304 }, "geometry": { "type": "Point", "coordinates": [ 39.6259, 40.0283 ] } },
{ "type": "Feature", "properties": { "name": "Beit Zabde (Zabdizene)", "t": 100 }, "geometry": { "type": "Point", "coordinates": [ 41.5, 37.5 ] } },
{ "type": "Feature", "properties": { "name": "Dura-Europos", "t": 200 }, "geometry": { "type": "Point", "coordinates": [ 40.7286, 34.7491 ] } },
{ "type": "Feature", "properties": { "name": "Laura", "t": 304 }, "geometry": { "type": "Point", "coordinates": [ -0.4569, 38.8122 ] } },
{ "type": "Feature", "properties": { "name": "Arjona", "t": 304 }, "geometry": { "type": "Point", "coordinates": [ -3.9085, 37.883 ] } },
{ "type": "Feature", "properties": { "name": "Arzon", "t": 200 }, "geometry": { "type": "Point", "coordinates": [ 41.6723, 37.7621 ] } },
{ "type": "Feature", "properties": { "name": "Maximinianopolis", "t": 304 }, "geometry": { "type": "Point", "coordinates": [ 31.1343, 37.6753 ] } },
{ "type": "Feature", "properties": { "name": "Aphrodisias", "t": 304 }, "geometry": { "type": "Point", "coordinates": [ 28.6978, 37.5539 ] } },
{ "type": "Feature", "properties": { "name": "Cabra", "t": 304 }, "geometry": { "type": "Point", "coordinates": [ -4.6915, 37.1884 ] } },
{ "type": "Feature", "properties": { "name": "Flaviopolis", "t": 304 }, "geometry": { "type": "Point", "coordinates": [ 35.9602, 37.1517 ] } },
{ "type": "Feature", "properties": { "name": "Coropissus", "t": 304 }, "geometry": { "type": "Point", "coordinates": [ 33.3386, 36.7702 ] } },
{ "type": "Feature", "properties": { "name": "Centuriones", "t": 304 }, "geometry": { "type": "Point", "coordinates": [ 6.7595, 36.6877 ] } },
{ "type": "Feature", "properties": { "name": "Bilta", "t": 304 }, "geometry": { "type": "Point", "coordinates": [ 9.0503, 36.6754 ] } },
{ "type": "Feature", "properties": { "name": "Dionysiana", "t": 304 }, "geometry": { "type": "Point", "coordinates": [ 10.5432, 35.9266 ] } },
{ "type": "Feature", "properties": { "name": "Gemellae", "t": 304 }, "geometry": { "type": "Point", "coordinates": [ 5.7849, 35.92 ] } },
{ "type": "Feature", "properties": { "name": "Germaniciana", "t": 304 }, "geometry": { "type": "Point", "coordinates": [ 9.8511, 35.5319 ] } },
{ "type": "Feature", "properties": { "name": "Cibalianae", "t": 304 }, "geometry": { "type": "Point", "coordinates": [ 8.3966, 34.9232 ] } },
{ "type": "Feature", "properties": { "name": "Maraiadnae", "t": 304 }, "geometry": { "type": "Point", "coordinates": [ 9.7194, 34.4658 ] } },
{ "type": "Feature", "properties": { "name": "Luperciana", "t": 304 }, "geometry": { "type": "Point", "coordinates": [ 9.9321, 33.5057 ] } },
{ "type": "Feature", "properties": { "name": "Sabulon", "t": 304 }, "geometry": { "type": "Point", "coordinates": [ 35.0443, 32.784 ] } },
{ "type": "Feature", "properties": { "name": "Phtenegys", "t": 304 }, "geometry": { "type": "Point", "coordinates": [ 31.0352, 31.4496 ] } },
{ "type": "Feature", "properties": { "name": "Colluthion", "t": 304 }, "geometry": { "type": "Point", "coordinates": [ 29.7341, 31.0816 ] } },
{ "type": "Feature", "properties": { "name": "Cephro", "t": 304 }, "geometry": { "type": "Point", "coordinates": [ 29.7099, 30.8498 ] } }
]
}
