{
"type": "FeatureCollection",
"crs": { "type": "name", "properties": { "name": "urn:ogc:def:crs:OGC:1.3:CRS84" } },
"features": [
{ "type": "Feature", "properties": { "Ancient name": "Apamea" }, "geometry": { "type": "Point", "coordinates": [ 36.41668, 35.4216 ] } },
{ "type": "Feature", "properties": { "Ancient name": "Apulum" }, "geometry": { "type": "Point", "coordinates": [ 23.57238, 46.06745 ] } },
{ "type": "Feature", "properties": { "Ancient name": "Castra Albana" }, "geometry": { "type": "Point", "coordinates": [ 12.66094, 41.72971 ] } },
{ "type": "Feature", "properties": { "Ancient name": "Albing" }, "geometry": { "type": "Point", "coordinates": [ 14.54998, 48.22624 ] } },
{ "type": "Feature", "properties": { "Ancient name": "Alexandria-Nicopolis" }, "geometry": { "type": "Point", "coordinates": [ 29.94443, 31.22932 ] } },
{ "type": "Feature", "properties": { "Ancient name": "Anreppen" }, "geometry": { "type": "Point", "coordinates": [ 8.59208, 51.73807 ] } },
{ "type": "Feature", "properties": { "Ancient name": "Ratiaria" }, "geometry": { "type": "Point", "coordinates": [ 22.9301, 43.81538 ] } },
{ "type": "Feature", "properties": { "Ancient name": "Asturica, Asturica Augusta" }, "geometry": { "type": "Point", "coordinates": [ -5.94481, 42.45487 ] } },
{ "type": "Feature", "properties": { "Ancient name": "Carnuntum" }, "geometry": { "type": "Point", "coordinates": [ 16.88893, 48.12411 ] } },
{ "type": "Feature", "properties": { "Ancient name": "Singara" }, "geometry": { "type": "Point", "coordinates": [ 41.85629, 36.32865 ] } },
{ "type": "Feature", "properties": { "Ancient name": "Raphanaea" }, "geometry": { "type": "Point", "coordinates": [ 36.39753, 34.94117 ] } },
{ "type": "Feature", "properties": { "Ancient name": "Zeugma" }, "geometry": { "type": "Point", "coordinates": [ 37.86773, 37.03416 ] } },
{ "type": "Feature", "properties": { "Ancient name": "Singidunum" }, "geometry": { "type": "Point", "coordinates": [ 20.45209, 44.822 ] } },
{ "type": "Feature", "properties": { "Ancient name": "Berzobis" }, "geometry": { "type": "Point", "coordinates": [ 21.62332, 45.42792 ] } },
{ "type": "Feature", "properties": { "Ancient name": "Bonna" }, "geometry": { "type": "Point", "coordinates": [ 7.10074, 50.74453 ] } },
{ "type": "Feature", "properties": { "Ancient name": "Bostra, Colonia Nova Traiana Alexandriana" }, "geometry": { "type": "Point", "coordinates": [ 36.48324, 32.52459 ] } },
{ "type": "Feature", "properties": { "Ancient name": "Aquincum" }, "geometry": { "type": "Point", "coordinates": [ 19.04081, 47.54267 ] } },
{ "type": "Feature", "properties": { "Ancient name": "Isca, Isca Augusta" }, "geometry": { "type": "Point", "coordinates": [ -2.95692, 51.61032 ] } },
{ "type": "Feature", "properties": { "Ancient name": "Deva" }, "geometry": { "type": "Point", "coordinates": [ -2.89194, 53.19081 ] } },
{ "type": "Feature", "properties": { "Ancient name": "Camulodunum" }, "geometry": { "type": "Point", "coordinates": [ 0.89793, 51.8897 ] } },
{ "type": "Feature", "properties": { "Ancient name": "Lauriacum" }, "geometry": { "type": "Point", "coordinates": [ 14.47391, 48.21975 ] } },
{ "type": "Feature", "properties": { "Ancient name": "Battalgazi-Melitene" }, "geometry": { "type": "Point", "coordinates": [ 38.36301, 38.42065 ] } },
{ "type": "Feature", "properties": { "Ancient name": "Isca" }, "geometry": { "type": "Point", "coordinates": [ -3.53251, 50.72227 ] } },
{ "type": "Feature", "properties": { "Ancient name": "Oescus" }, "geometry": { "type": "Point", "coordinates": [ 24.46478, 43.71003 ] } },
{ "type": "Feature", "properties": { "Ancient name": "Tilurium" }, "geometry": { "type": "Point", "coordinates": [ 16.71567, 43.61304 ] } },
{ "type": "Feature", "properties": { "Ancient name": "Glevum, Colonia Glevum, Clavinio" }, "geometry": { "type": "Point", "coordinates": [ -2.24581, 51.86525 ] } },
{ "type": "Feature", "properties": { "Ancient name": "Sarmizegetusa, Ulpia Traiana Sarmizegetusa" }, "geometry": { "type": "Point", "coordinates": [ 22.78736, 45.51412 ] } },
{ "type": "Feature", "properties": { "Ancient name": "Ammaedara" }, "geometry": { "type": "Point", "coordinates": [ 8.45427, 35.56364 ] } },
{ "type": "Feature", "properties": { "Ancient name": "Haltern" }, "geometry": { "type": "Point", "coordinates": [ 7.17038, 51.74158 ] } },
{ "type": "Feature", "properties": { "Ancient name": "Pisoraca" }, "geometry": { "type": "Point", "coordinates": [ -4.33028, 42.59468 ] } },
{ "type": "Feature", "properties": { "Ancient name": "Troesmis" }, "geometry": { "type": "Point", "coordinates": [ 28.19512, 45.14346 ] } },
{ "type": "Feature", "properties": { "Ancient name": "Pinnata Castra\/Victoria?" }, "geometry": { "type": "Point", "coordinates": [ -3.41665, 56.54049 ] } },
{ "type": "Feature", "properties": { "Ancient name": "Burnum" }, "geometry": { "type": "Point", "coordinates": [ 16.02568, 44.01746 ] } },
{ "type": "Feature", "properties": { "Ancient name": "Hierosolyma" }, "geometry": { "type": "Point", "coordinates": [ 35.2294, 31.77799 ] } },
{ "type": "Feature", "properties": { "Ancient name": "Ara Ubiorum, Colonia Claudia Ara Agrippinensium" }, "geometry": { "type": "Point", "coordinates": [ 6.95686, 50.94128 ] } },
{ "type": "Feature", "properties": { "Ancient name": "Viminacium" }, "geometry": { "type": "Point", "coordinates": [ 21.22251, 44.73553 ] } },
{ "type": "Feature", "properties": { "Ancient name": "Cyrrhus" }, "geometry": { "type": "Point", "coordinates": [ 36.96094, 36.74888 ] } },
{ "type": "Feature", "properties": { "Ancient name": "Legio, Caporcotani, Maximianopolis" }, "geometry": { "type": "Point", "coordinates": [ 35.18724, 32.57664 ] } },
{ "type": "Feature", "properties": { "Ancient name": "Legio VII Gemina" }, "geometry": { "type": "Point", "coordinates": [ -5.56666, 42.59864 ] } },
{ "type": "Feature", "properties": { "Ancient name": "Lindum" }, "geometry": { "type": "Point", "coordinates": [ -0.54147, 53.23467 ] } },
{ "type": "Feature", "properties": { "Ancient name": "Emona" }, "geometry": { "type": "Point", "coordinates": [ 14.5096, 46.0445 ] } },
{ "type": "Feature", "properties": { "Ancient name": "Celeia" }, "geometry": { "type": "Point", "coordinates": [ 15.0952, 46.26921 ] } },
{ "type": "Feature", "properties": { "Ancient name": "Mogontiacum" }, "geometry": { "type": "Point", "coordinates": [ 8.26152, 49.99468 ] } },
{ "type": "Feature", "properties": { "Ancient name": "Marktbreit" }, "geometry": { "type": "Point", "coordinates": [ 10.15523, 49.67099 ] } },
{ "type": "Feature", "properties": { "Ancient name": "Mirebellum" }, "geometry": { "type": "Point", "coordinates": [ 5.33122, 47.39143 ] } },
{ "type": "Feature", "properties": { "Ancient name": "Novaesium - Camp C" }, "geometry": { "type": "Point", "coordinates": [ 6.7103, 51.18611 ] } },
{ "type": "Feature", "properties": { "Ancient name": "Novaesium - Camp G" }, "geometry": { "type": "Point", "coordinates": [ 6.72483, 51.18285 ] } },
{ "type": "Feature", "properties": { "Ancient name": "Batavodurum" }, "geometry": { "type": "Point", "coordinates": [ 5.88457, 51.84039 ] } },
{ "type": "Feature", "properties": { "Ancient name": "Noviomagus" }, "geometry": { "type": "Point", "coordinates": [ 5.88548, 51.8398 ] } },
{ "type": "Feature", "properties": { "Ancient name": "Oberaden" }, "geometry": { "type": "Point", "coordinates": [ 7.58153, 51.61018 ] } },
{ "type": "Feature", "properties": { "Ancient name": "Poetovio" }, "geometry": { "type": "Point", "coordinates": [ 15.86357, 46.41402 ] } },
{ "type": "Feature", "properties": { "Ancient name": "Castra Regina" }, "geometry": { "type": "Point", "coordinates": [ 12.09833, 49.01804 ] } },
{ "type": "Feature", "properties": { "Ancient name": "Roma - Castra Praetoria" }, "geometry": { "type": "Point", "coordinates": [ 12.50652, 41.90676 ] } },
{ "type": "Feature", "properties": { "Ancient name": "Petavonium" }, "geometry": { "type": "Point", "coordinates": [ -5.99824, 42.08824 ] } },
{ "type": "Feature", "properties": { "Ancient name": "Satala" }, "geometry": { "type": "Point", "coordinates": [ 39.59838, 40.02719 ] } },
{ "type": "Feature", "properties": { "Ancient name": "Siscia, Segestica" }, "geometry": { "type": "Point", "coordinates": [ 16.37472, 45.48429 ] } },
{ "type": "Feature", "properties": { "Ancient name": "Argentorate" }, "geometry": { "type": "Point", "coordinates": [ 7.75098, 48.5828 ] } },
{ "type": "Feature", "properties": { "Ancient name": "Novae" }, "geometry": { "type": "Point", "coordinates": [ 25.39458, 43.61351 ] } },
{ "type": "Feature", "properties": { "Ancient name": "Brigetio" }, "geometry": { "type": "Point", "coordinates": [ 18.19397, 47.73376 ] } },
{ "type": "Feature", "properties": { "Ancient name": "Lambaesis" }, "geometry": { "type": "Point", "coordinates": [ 6.25473, 35.49022 ] } },
{ "type": "Feature", "properties": { "Ancient name": "TĂ©bessa" }, "geometry": { "type": "Point", "coordinates": [ 8.12163, 35.40335 ] } },
{ "type": "Feature", "properties": { "Ancient name": "Potaissa" }, "geometry": { "type": "Point", "coordinates": [ 23.77334, 46.57029 ] } },
{ "type": "Feature", "properties": { "Ancient name": "Burrium, Burrio" }, "geometry": { "type": "Point", "coordinates": [ -2.90084, 51.69997 ] } },
{ "type": "Feature", "properties": { "Ancient name": "Vindobonna" }, "geometry": { "type": "Point", "coordinates": [ 16.37111, 48.21134 ] } },
{ "type": "Feature", "properties": { "Ancient name": "Vindonissa" }, "geometry": { "type": "Point", "coordinates": [ 8.22104, 47.48032 ] } },
{ "type": "Feature", "properties": { "Ancient name": "Viroconium, Viriconium" }, "geometry": { "type": "Point", "coordinates": [ -2.64326, 52.67338 ] } },
{ "type": "Feature", "properties": { "Ancient name": "Castra Vetera" }, "geometry": { "type": "Point", "coordinates": [ 6.46894, 51.64126 ] } },
{ "type": "Feature", "properties": { "Ancient name": "Castra Vetera II" }, "geometry": { "type": "Point", "coordinates": [ 6.48017, 51.64638 ] } },
{ "type": "Feature", "properties": { "Ancient name": "Eboracum, Eburacum" }, "geometry": { "type": "Point", "coordinates": [ -1.08711, 53.96149 ] } },
{ "type": "Feature", "properties": { "Ancient name": "Aila, Aelana" }, "geometry": { "type": "Point", "coordinates": [ 34.99997, 29.53066 ] } },
{ "type": "Feature", "properties": { "Ancient name": "Arrabona" }, "geometry": { "type": "Point", "coordinates": [ 17.63149, 47.68899 ] } },
{ "type": "Feature", "properties": { "Ancient name": "Divitia" }, "geometry": { "type": "Point", "coordinates": [ 6.96944, 50.93776 ] } },
{ "type": "Feature", "properties": { "Ancient name": "Betthorus" }, "geometry": { "type": "Point", "coordinates": [ 35.86854, 31.23708 ] } },
{ "type": "Feature", "properties": { "Ancient name": "Thebae, Thebai, Kastron Thebon" }, "geometry": { "type": "Point", "coordinates": [ 32.64986, 25.69201 ] } },
{ "type": "Feature", "properties": { "Ancient name": "Danaba" }, "geometry": { "type": "Point", "coordinates": [ 37.05918, 34.24201 ] } },
{ "type": "Feature", "properties": { "Ancient name": "Babylon, Stratonicidi" }, "geometry": { "type": "Point", "coordinates": [ 31.23069, 30.00594 ] } },
{ "type": "Feature", "properties": { "Ancient name": "Rutupiae" }, "geometry": { "type": "Point", "coordinates": [ 1.33249, 51.29398 ] } },
{ "type": "Feature", "properties": { "Ancient name": "Ioviacum" }, "geometry": { "type": "Point", "coordinates": [ 13.8708, 48.42424 ] } },
{ "type": "Feature", "properties": { "Ancient name": "Sura" }, "geometry": { "type": "Point", "coordinates": [ 38.77955, 35.89689 ] } },
{ "type": "Feature", "properties": { "Ancient name": "Palmyra" }, "geometry": { "type": "Point", "coordinates": [ 38.26263, 34.5553 ] } },
{ "type": "Feature", "properties": { "Ancient name": "Oresa, Oriza, Oruba" }, "geometry": { "type": "Point", "coordinates": [ 38.91366, 35.09147 ] } },
{ "type": "Feature", "properties": { "Ancient name": "Adrou, Augustopolis" }, "geometry": { "type": "Point", "coordinates": [ 35.76261, 30.32918 ] } },
{ "type": "Feature", "properties": { "Ancient name": "Ad Iuvense" }, "geometry": { "type": "Point", "coordinates": [ 14.71573, 48.16701 ] } }
]
}
