{
"type": "FeatureCollection",
"crs": { "type": "name", "properties": { "name": "urn:ogc:def:crs:OGC:1.3:CRS84" } },
"features": [
{ "type": "Feature", "properties": { "timeperiod": "I", "timeperi_1": "iron-age-britain", "title": "Worlebury Camp" }, "geometry": { "type": "Point", "coordinates": [ -2.9852, 51.3574 ] } },
{ "type": "Feature", "properties": { "timeperiod": "I", "timeperi_1": "iron-age-britain", "title": "Grabbist hill-fort" }, "geometry": { "type": "Point", "coordinates": [ -3.4565, 51.1832 ] } },
{ "type": "Feature", "properties": { "timeperiod": "I", "timeperi_1": "iron-age-britain", "title": "Black Ball Camp" }, "geometry": { "type": "Point", "coordinates": [ -3.4542, 51.1743 ] } },
{ "type": "Feature", "properties": { "timeperiod": "I", "timeperi_1": "iron-age-britain", "title": "Broch of Mousa" }, "geometry": { "type": "Point", "coordinates": [ -1.1821, 59.9953 ] } },
{ "type": "Feature", "properties": { "timeperiod": "HRL", "timeperi_1": "hellenistic-republican,roman,late-antique", "title": "Fort at Great Wall of Gorgan" }, "geometry": { "type": "Point", "coordinates": [ 55.0337, 37.2407 ] } },
{ "type": "Feature", "properties": { "timeperiod": "HRL", "timeperi_1": "hellenistic-republican,roman,late-antique", "title": "Fort at Great Wall of Gorgan" }, "geometry": { "type": "Point", "coordinates": [ 54.6591, 37.1648 ] } },
{ "type": "Feature", "properties": { "timeperiod": "HRL", "timeperi_1": "hellenistic-republican,roman,late-antique", "title": "Fort at Great Wall of Gorgan" }, "geometry": { "type": "Point", "coordinates": [ 54.615, 37.1185 ] } },
{ "type": "Feature", "properties": { "timeperiod": "HRL", "timeperi_1": "hellenistic-republican,roman,late-antique", "title": "Fort at Great Wall of Gorgan" }, "geometry": { "type": "Point", "coordinates": [ 54.7501, 37.2103 ] } },
{ "type": "Feature", "properties": { "timeperiod": "HRL", "timeperi_1": "hellenistic-republican,roman,late-antique", "title": "Fort at Great Wall of Gorgan" }, "geometry": { "type": "Point", "coordinates": [ 54.6924, 37.1982 ] } },
{ "type": "Feature", "properties": { "timeperiod": "HRL", "timeperi_1": "hellenistic-republican,roman,late-antique", "title": "Fort at Great Wall of Gorgan" }, "geometry": { "type": "Point", "coordinates": [ 54.8498, 37.2338 ] } },
{ "type": "Feature", "properties": { "timeperiod": "HRL", "timeperi_1": "hellenistic-republican,roman,late-antique", "title": "Fort at Great Wall of Gorgan" }, "geometry": { "type": "Point", "coordinates": [ 54.8156, 37.2288 ] } },
{ "type": "Feature", "properties": { "timeperiod": "HRL", "timeperi_1": "hellenistic-republican,roman,late-antique", "title": "Fort at Great Wall of Gorgan" }, "geometry": { "type": "Point", "coordinates": [ 54.9231, 37.2367 ] } },
{ "type": "Feature", "properties": { "timeperiod": "HRL", "timeperi_1": "hellenistic-republican,roman,late-antique", "title": "Fort at Great Wall of Gorgan" }, "geometry": { "type": "Point", "coordinates": [ 54.8968, 37.2352 ] } },
{ "type": "Feature", "properties": { "timeperiod": "HRL", "timeperi_1": "hellenistic-republican,roman,late-antique", "title": "Fort at Great Wall of Gorgan" }, "geometry": { "type": "Point", "coordinates": [ 54.9822, 37.2409 ] } },
{ "type": "Feature", "properties": { "timeperiod": "HRL", "timeperi_1": "hellenistic-republican,roman,late-antique", "title": "Fort at Great Wall of Gorgan" }, "geometry": { "type": "Point", "coordinates": [ 54.9552, 37.2388 ] } },
{ "type": "Feature", "properties": { "timeperiod": "HRL", "timeperi_1": "hellenistic-republican,roman,late-antique", "title": "Fort at Great Wall of Gorgan" }, "geometry": { "type": "Point", "coordinates": [ 54.2323, 37.1384 ] } },
{ "type": "Feature", "properties": { "timeperiod": "HRL", "timeperi_1": "hellenistic-republican,roman,late-antique", "title": "Fort at Great Wall of Gorgan" }, "geometry": { "type": "Point", "coordinates": [ 54.2508, 37.1377 ] } },
{ "type": "Feature", "properties": { "timeperiod": "HRL", "timeperi_1": "hellenistic-republican,roman,late-antique", "title": "Fort at Great Wall of Gorgan" }, "geometry": { "type": "Point", "coordinates": [ 54.3241, 37.1327 ] } },
{ "type": "Feature", "properties": { "timeperiod": "HRL", "timeperi_1": "hellenistic-republican,roman,late-antique", "title": "Fort at Great Wall of Gorgan" }, "geometry": { "type": "Point", "coordinates": [ 54.4252, 37.1099 ] } },
{ "type": "Feature", "properties": { "timeperiod": "HRL", "timeperi_1": "hellenistic-republican,roman,late-antique", "title": "Fort at Great Wall of Gorgan" }, "geometry": { "type": "Point", "coordinates": [ 54.4569, 37.1071 ] } },
{ "type": "Feature", "properties": { "timeperiod": "HRL", "timeperi_1": "hellenistic-republican,roman,late-antique", "title": "Fort at Great Wall of Gorgan" }, "geometry": { "type": "Point", "coordinates": [ 54.4925, 37.1021 ] } },
{ "type": "Feature", "properties": { "timeperiod": "HRL", "timeperi_1": "hellenistic-republican,roman,late-antique", "title": "Fort at Great Wall of Gorgan" }, "geometry": { "type": "Point", "coordinates": [ 54.5146, 37.0964 ] } },
{ "type": "Feature", "properties": { "timeperiod": "HRL", "timeperi_1": "hellenistic-republican,roman,late-antique", "title": "Fort at Great Wall of Gorgan" }, "geometry": { "type": "Point", "coordinates": [ 54.5459, 37.0978 ] } },
{ "type": "Feature", "properties": { "timeperiod": "HRL", "timeperi_1": "hellenistic-republican,roman,late-antique", "title": "Fort at Great Wall of Gorgan" }, "geometry": { "type": "Point", "coordinates": [ 54.181, 37.1334 ] } },
{ "type": "Feature", "properties": { "timeperiod": "HRL", "timeperi_1": "hellenistic-republican,roman,late-antique", "title": "Fort at Great Wall of Gorgan" }, "geometry": { "type": "Point", "coordinates": [ 55.1609, 37.2568 ] } },
{ "type": "Feature", "properties": { "timeperiod": "HRL", "timeperi_1": "hellenistic-republican,roman,late-antique", "title": "Fort at Great Wall of Gorgan" }, "geometry": { "type": "Point", "coordinates": [ 55.1011, 37.2445 ] } },
{ "type": "Feature", "properties": { "timeperiod": "HRL", "timeperi_1": "hellenistic-republican,roman,late-antique", "title": "Fort at Great Wall of Gorgan" }, "geometry": { "type": "Point", "coordinates": [ 55.1144, 37.2473 ] } },
{ "type": "Feature", "properties": { "timeperiod": "HRL", "timeperi_1": "hellenistic-republican,roman,late-antique", "title": "Fort at Great Wall of Gorgan" }, "geometry": { "type": "Point", "coordinates": [ 55.2917, 37.3511 ] } },
{ "type": "Feature", "properties": { "timeperiod": "HRL", "timeperi_1": "hellenistic-republican,roman,late-antique", "title": "Fort at Great Wall of Gorgan" }, "geometry": { "type": "Point", "coordinates": [ 55.3133, 37.3713 ] } },
{ "type": "Feature", "properties": { "timeperiod": "HRL", "timeperi_1": "hellenistic-republican,roman,late-antique", "title": "Fort at Great Wall of Gorgan" }, "geometry": { "type": "Point", "coordinates": [ 55.2095, 37.2789 ] } },
{ "type": "Feature", "properties": { "timeperiod": "HRL", "timeperi_1": "hellenistic-republican,roman,late-antique", "title": "Fort at Great Wall of Gorgan" }, "geometry": { "type": "Point", "coordinates": [ 55.2474, 37.3182 ] } },
{ "type": "Feature", "properties": { "timeperiod": "HRL", "timeperi_1": "hellenistic-republican,roman,late-antique", "title": "Fort at Great Wall of Gorgan" }, "geometry": { "type": "Point", "coordinates": [ 55.5095, 37.484 ] } },
{ "type": "Feature", "properties": { "timeperiod": "HRL", "timeperi_1": "hellenistic-republican,roman,late-antique", "title": "Fort at Great Wall of Gorgan" }, "geometry": { "type": "Point", "coordinates": [ 55.4424, 37.4562 ] } },
{ "type": "Feature", "properties": { "timeperiod": "HRL", "timeperi_1": "hellenistic-republican,roman,late-antique", "title": "Fort at Great Wall of Gorgan" }, "geometry": { "type": "Point", "coordinates": [ 55.3981, 37.4258 ] } },
{ "type": "Feature", "properties": { "timeperiod": "HR", "timeperi_1": "hellenistic-republican,roman", "title": "Tower in R. Nestos Valley" }, "geometry": { "type": "Point", "coordinates": [ 24.7259, 41.1817 ] } },
{ "type": "Feature", "properties": { "timeperiod": "HR", "timeperi_1": "hellenistic-republican,roman", "title": "Tower in R. Nestos Valley" }, "geometry": { "type": "Point", "coordinates": [ 24.7185, 41.1652 ] } },
{ "type": "Feature", "properties": { "timeperiod": "HR", "timeperi_1": "hellenistic-republican,roman", "title": "Tower in R. Nestos Valley" }, "geometry": { "type": "Point", "coordinates": [ 24.729, 41.2306 ] } },
{ "type": "Feature", "properties": { "timeperiod": "HR", "timeperi_1": "hellenistic-republican,roman", "title": "Tower in R. Nestos Valley" }, "geometry": { "type": "Point", "coordinates": [ 24.6305, 41.2652 ] } },
{ "type": "Feature", "properties": { "timeperiod": "HR", "timeperi_1": "hellenistic-republican,roman", "title": "Tower in R. Nestos Valley" }, "geometry": { "type": "Point", "coordinates": [ 24.5326, 41.253 ] } },
{ "type": "Feature", "properties": { "timeperiod": "HR", "timeperi_1": "hellenistic-republican,roman", "title": "Tower in R. Nestos Valley" }, "geometry": { "type": "Point", "coordinates": [ 24.5412, 41.2072 ] } },
{ "type": "Feature", "properties": { "timeperiod": "HR", "timeperi_1": "hellenistic-republican,roman", "title": "Tower in R. Nestos Valley" }, "geometry": { "type": "Point", "coordinates": [ 24.5151, 41.2254 ] } },
{ "type": "Feature", "properties": { "timeperiod": "HR", "timeperi_1": "hellenistic-republican,roman", "title": "Tower in R. Nestos Valley" }, "geometry": { "type": "Point", "coordinates": [ 24.594, 41.2198 ] } },
{ "type": "Feature", "properties": { "timeperiod": "HR", "timeperi_1": "hellenistic-republican,roman", "title": "Tower in R. Nestos Valley" }, "geometry": { "type": "Point", "coordinates": [ 24.6819, 41.2255 ] } },
{ "type": "Feature", "properties": { "timeperiod": "HR", "timeperi_1": "hellenistic-republican,roman", "title": "Tower in R. Nestos Valley" }, "geometry": { "type": "Point", "coordinates": [ 24.6408, 41.2149 ] } },
{ "type": "Feature", "properties": { "timeperiod": "HR", "timeperi_1": "hellenistic-republican,roman", "title": "Tower in R. Nestos Valley" }, "geometry": { "type": "Point", "coordinates": [ 24.5867, 41.2505 ] } },
{ "type": "Feature", "properties": { "timeperiod": "I", "timeperi_1": "iron-age-britain", "title": "Scratchbury Camp" }, "geometry": { "type": "Point", "coordinates": [ -2.1246, 51.1974 ] } },
{ "type": "Feature", "properties": { "timeperiod": "I", "timeperi_1": "iron-age-britain", "title": "Ruborough Camp" }, "geometry": { "type": "Point", "coordinates": [ -3.1039, 51.096 ] } },
{ "type": "Feature", "properties": { "timeperiod": "L", "timeperi_1": "late-antique", "title": "Piniana" }, "geometry": { "type": "Point", "coordinates": [ 10.0777, 48.3835 ] } },
{ "type": "Feature", "properties": { "timeperiod": "RL", "timeperi_1": "roman,late-antique", "title": "Parrodunum" }, "geometry": { "type": "Point", "coordinates": [ 11.017, 48.7004 ] } },
{ "type": "Feature", "properties": { "timeperiod": "R", "timeperi_1": "roman", "title": "Osterburken" }, "geometry": { "type": "Point", "coordinates": [ 9.4249, 49.4302 ] } },
{ "type": "Feature", "properties": { "timeperiod": "R", "timeperi_1": "roman", "title": "Oberstimm" }, "geometry": { "type": "Point", "coordinates": [ 11.4558, 48.7129 ] } },
{ "type": "Feature", "properties": { "timeperiod": "R", "timeperi_1": "roman", "title": "Nidderau" }, "geometry": { "type": "Point", "coordinates": [ 8.8705, 50.2368 ] } },
{ "type": "Feature", "properties": { "timeperiod": "R", "timeperi_1": "roman", "title": "Nersingen" }, "geometry": { "type": "Point", "coordinates": [ 10.1245, 48.4276 ] } },
{ "type": "Feature", "properties": { "timeperiod": "R", "timeperi_1": "roman", "title": "Neckarburken" }, "geometry": { "type": "Point", "coordinates": [ 9.1703, 49.3767 ] } },
{ "type": "Feature", "properties": { "timeperiod": "R", "timeperi_1": "roman", "title": "Moos" }, "geometry": { "type": "Point", "coordinates": [ 12.9611, 48.7515 ] } },
{ "type": "Feature", "properties": { "timeperiod": "R", "timeperi_1": "roman", "title": "Miltenberg-Ost" }, "geometry": { "type": "Point", "coordinates": [ 9.2571, 49.7032 ] } },
{ "type": "Feature", "properties": { "timeperiod": "RL", "timeperi_1": "roman,late-antique", "title": "Mediana" }, "geometry": { "type": "Point", "coordinates": [ 10.7045, 49.0572 ] } },
{ "type": "Feature", "properties": { "timeperiod": "R", "timeperi_1": "roman", "title": "Marktbreit" }, "geometry": { "type": "Point", "coordinates": [ 10.1432, 49.6659 ] } },
{ "type": "Feature", "properties": { "timeperiod": "R", "timeperi_1": "roman", "title": "Losodica" }, "geometry": { "type": "Point", "coordinates": [ 10.6023, 48.9215 ] } },
{ "type": "Feature", "properties": { "timeperiod": "RLM", "timeperi_1": "roman,late-antique,modern", "title": "Lo(a)cus Felicis?" }, "geometry": { "type": "Point", "coordinates": [ 14.7998, 48.0964 ] } },
{ "type": "Feature", "properties": { "timeperiod": "RLM", "timeperi_1": "roman,late-antique,modern", "title": "Lauriacum" }, "geometry": { "type": "Point", "coordinates": [ 14.475, 48.2167 ] } },
{ "type": "Feature", "properties": { "timeperiod": "R", "timeperi_1": "roman", "title": "Lauchheim" }, "geometry": { "type": "Point", "coordinates": [ 10.2463, 48.8718 ] } },
{ "type": "Feature", "properties": { "timeperiod": "R", "timeperi_1": "roman", "title": "Kumpfmühl" }, "geometry": { "type": "Point", "coordinates": [ 12.1009, 49.0165 ] } },
{ "type": "Feature", "properties": { "timeperiod": "R", "timeperi_1": "roman", "title": "Jagsthausen" }, "geometry": { "type": "Point", "coordinates": [ 9.4692, 49.3109 ] } },
{ "type": "Feature", "properties": { "timeperiod": "RL", "timeperi_1": "roman,late-antique", "title": "Ioviacum?" }, "geometry": { "type": "Point", "coordinates": [ 13.9167, 48.4167 ] } },
{ "type": "Feature", "properties": { "timeperiod": "RL", "timeperi_1": "roman,late-antique", "title": "Iciniacum" }, "geometry": { "type": "Point", "coordinates": [ 10.8475, 49.0902 ] } },
{ "type": "Feature", "properties": { "timeperiod": "R", "timeperi_1": "roman", "title": "Halheim" }, "geometry": { "type": "Point", "coordinates": [ 10.2857, 48.9832 ] } },
{ "type": "Feature", "properties": { "timeperiod": "R", "timeperi_1": "roman", "title": "Haardorf" }, "geometry": { "type": "Point", "coordinates": [ 13.0045, 48.7272 ] } },
{ "type": "Feature", "properties": { "timeperiod": "RL", "timeperi_1": "roman,late-antique", "title": "Grossprüfening" }, "geometry": { "type": "Point", "coordinates": [ 12.0464, 49.0129 ] } },
{ "type": "Feature", "properties": { "timeperiod": "R", "timeperi_1": "roman", "title": "*Grinario" }, "geometry": { "type": "Point", "coordinates": [ 9.3601, 48.6773 ] } },
{ "type": "Feature", "properties": { "timeperiod": "R", "timeperi_1": "roman", "title": "Germanicum" }, "geometry": { "type": "Point", "coordinates": [ 11.4997, 48.8108 ] } },
{ "type": "Feature", "properties": { "timeperiod": "R", "timeperi_1": "roman", "title": "Frittlingen" }, "geometry": { "type": "Point", "coordinates": [ 8.7099, 48.1274 ] } },
{ "type": "Feature", "properties": { "timeperiod": "R", "timeperi_1": "roman", "title": "Friedberg" }, "geometry": { "type": "Point", "coordinates": [ 8.7537, 50.3367 ] } },
{ "type": "Feature", "properties": { "timeperiod": "RLM", "timeperi_1": "roman,late-antique,modern", "title": "Faviana" }, "geometry": { "type": "Point", "coordinates": [ 15.5776, 48.3937 ] } },
{ "type": "Feature", "properties": { "timeperiod": "RL", "timeperi_1": "roman,late-antique", "title": "Essingen" }, "geometry": { "type": "Point", "coordinates": [ 10.0275, 48.8087 ] } },
{ "type": "Feature", "properties": { "timeperiod": "R", "timeperi_1": "roman", "title": "Eislingen" }, "geometry": { "type": "Point", "coordinates": [ 9.706, 48.6944 ] } },
{ "type": "Feature", "properties": { "timeperiod": "R", "timeperi_1": "roman", "title": "Clarenna" }, "geometry": { "type": "Point", "coordinates": [ 9.565, 48.5172 ] } },
{ "type": "Feature", "properties": { "timeperiod": "R", "timeperi_1": "roman", "title": "Celeusum" }, "geometry": { "type": "Point", "coordinates": [ 11.6889, 48.808 ] } },
{ "type": "Feature", "properties": { "timeperiod": "L", "timeperi_1": "late-antique", "title": "Caelius Mons" }, "geometry": { "type": "Point", "coordinates": [ 10.1271, 48.1202 ] } },
{ "type": "Feature", "properties": { "timeperiod": "R", "timeperi_1": "roman", "title": "Burlafingen" }, "geometry": { "type": "Point", "coordinates": [ 10.0663, 48.4171 ] } },
{ "type": "Feature", "properties": { "timeperiod": "R", "timeperi_1": "roman", "title": "Burladingen" }, "geometry": { "type": "Point", "coordinates": [ 9.1152, 48.2892 ] } },
{ "type": "Feature", "properties": { "timeperiod": "RL", "timeperi_1": "roman,late-antique", "title": "Biriciana" }, "geometry": { "type": "Point", "coordinates": [ 10.9627, 49.0312 ] } },
{ "type": "Feature", "properties": { "timeperiod": "RLM", "timeperi_1": "roman,late-antique,modern", "title": "Batavi" }, "geometry": { "type": "Point", "coordinates": [ 13.4639, 48.5735 ] } },
{ "type": "Feature", "properties": { "timeperiod": "R", "timeperi_1": "roman", "title": "Bad Nauheim" }, "geometry": { "type": "Point", "coordinates": [ 8.7357, 50.3606 ] } },
{ "type": "Feature", "properties": { "timeperiod": "R", "timeperi_1": "roman", "title": "Arnsburg" }, "geometry": { "type": "Point", "coordinates": [ 8.7847, 50.4881 ] } },
{ "type": "Feature", "properties": { "timeperiod": "RL", "timeperi_1": "roman,late-antique", "title": "Ar(e)lape" }, "geometry": { "type": "Point", "coordinates": [ 15.2119, 48.2124 ] } },
{ "type": "Feature", "properties": { "timeperiod": "R", "timeperi_1": "roman", "title": "Albing" }, "geometry": { "type": "Point", "coordinates": [ 14.5466, 48.2251 ] } },
{ "type": "Feature", "properties": { "timeperiod": "R", "timeperi_1": "roman", "title": "Aislingen" }, "geometry": { "type": "Point", "coordinates": [ 10.4592, 48.509 ] } },
{ "type": "Feature", "properties": { "timeperiod": "RL", "timeperi_1": "roman,late-antique", "title": "Ad Lunam" }, "geometry": { "type": "Point", "coordinates": [ 9.8934, 48.5472 ] } },
{ "type": "Feature", "properties": { "timeperiod": "L", "timeperi_1": "late-antique", "title": "Untitled" }, "geometry": { "type": "Point", "coordinates": [ 6.6386, 49.8173 ] } },
{ "type": "Feature", "properties": { "timeperiod": "L", "timeperi_1": "late-antique", "title": "Zullestein" }, "geometry": { "type": "Point", "coordinates": [ 8.3924, 49.7037 ] } },
{ "type": "Feature", "properties": { "timeperiod": "L", "timeperi_1": "late-antique", "title": "Wiesbaden-Biebrich" }, "geometry": { "type": "Point", "coordinates": [ 8.241, 50.0448 ] } },
{ "type": "Feature", "properties": { "timeperiod": "R", "timeperi_1": "roman", "title": "Römerlager Wesseling" }, "geometry": { "type": "Point", "coordinates": [ 6.9759, 50.8198 ] } },
{ "type": "Feature", "properties": { "timeperiod": "RLM", "timeperi_1": "roman,late-antique,modern", "title": "Vicus Contiomagus" }, "geometry": { "type": "Point", "coordinates": [ 6.7076, 49.3561 ] } },
{ "type": "Feature", "properties": { "timeperiod": "RM", "timeperi_1": "roman,modern", "title": "Saalburg" }, "geometry": { "type": "Point", "coordinates": [ 8.5667, 50.2715 ] } },
{ "type": "Feature", "properties": { "timeperiod": "R", "timeperi_1": "roman", "title": "Rüsselsheim" }, "geometry": { "type": "Point", "coordinates": [ 8.4108, 49.9949 ] } },
{ "type": "Feature", "properties": { "timeperiod": "RL", "timeperi_1": "roman,late-antique", "title": "Rigomagus" }, "geometry": { "type": "Point", "coordinates": [ 7.227, 50.5788 ] } },
{ "type": "Feature", "properties": { "timeperiod": "LM", "timeperi_1": "late-antique,modern", "title": "Oudenburg" }, "geometry": { "type": "Point", "coordinates": [ 3.0046, 51.1844 ] } },
{ "type": "Feature", "properties": { "timeperiod": "RM", "timeperi_1": "roman,modern", "title": "Oberaden" }, "geometry": { "type": "Point", "coordinates": [ 7.5844, 51.6125 ] } },
{ "type": "Feature", "properties": { "timeperiod": "RLM", "timeperi_1": "roman,late-antique,modern", "title": "Novaesium" }, "geometry": { "type": "Point", "coordinates": [ 6.7219, 51.1839 ] } },
{ "type": "Feature", "properties": { "timeperiod": "R", "timeperi_1": "roman", "title": "Niederbieber" }, "geometry": { "type": "Point", "coordinates": [ 7.4719, 50.467 ] } },
{ "type": "Feature", "properties": { "timeperiod": "L", "timeperi_1": "late-antique", "title": "Neuwied-Engers" }, "geometry": { "type": "Point", "coordinates": [ 7.5455, 50.427 ] } },
{ "type": "Feature", "properties": { "timeperiod": "L", "timeperi_1": "late-antique", "title": "Neckarau" }, "geometry": { "type": "Point", "coordinates": [ 8.4923, 49.453 ] } },
{ "type": "Feature", "properties": { "timeperiod": "RL", "timeperi_1": "roman,late-antique", "title": "(Mons) Brisiacus" }, "geometry": { "type": "Point", "coordinates": [ 7.5798, 48.0291 ] } },
{ "type": "Feature", "properties": { "timeperiod": "L", "timeperi_1": "late-antique", "title": "Monheim-Haus Bürgel" }, "geometry": { "type": "Point", "coordinates": [ 6.8727, 51.1294 ] } },
{ "type": "Feature", "properties": { "timeperiod": "R", "timeperi_1": "roman", "title": "Langenhain" }, "geometry": { "type": "Point", "coordinates": [ 8.637, 50.3652 ] } },
{ "type": "Feature", "properties": { "timeperiod": "R", "timeperi_1": "roman", "title": "Lahnstein" }, "geometry": { "type": "Point", "coordinates": [ 7.6041, 50.309 ] } },
{ "type": "Feature", "properties": { "timeperiod": "R", "timeperi_1": "roman", "title": "Kneblinghausen" }, "geometry": { "type": "Point", "coordinates": [ 8.5062, 51.4909 ] } },
{ "type": "Feature", "properties": { "timeperiod": "L", "timeperi_1": "late-antique", "title": "Heumen-Heumensoord" }, "geometry": { "type": "Point", "coordinates": [ 5.8429, 51.7642 ] } },
{ "type": "Feature", "properties": { "timeperiod": "RM", "timeperi_1": "roman,modern", "title": "Haltern" }, "geometry": { "type": "Point", "coordinates": [ 7.1705, 51.7395 ] } },
{ "type": "Feature", "properties": { "timeperiod": "L", "timeperi_1": "late-antique", "title": "Grubbenvorst-Lottum" }, "geometry": { "type": "Point", "coordinates": [ 6.1625, 51.4616 ] } },
{ "type": "Feature", "properties": { "timeperiod": "R", "timeperi_1": "roman", "title": "Gross-Gerau" }, "geometry": { "type": "Point", "coordinates": [ 8.4818, 49.9214 ] } },
{ "type": "Feature", "properties": { "timeperiod": "L", "timeperi_1": "late-antique", "title": "Goch-Asperden" }, "geometry": { "type": "Point", "coordinates": [ 6.1156, 51.6926 ] } },
{ "type": "Feature", "properties": { "timeperiod": "R", "timeperi_1": "roman", "title": "Gernsheim" }, "geometry": { "type": "Point", "coordinates": [ 8.4858, 49.7504 ] } },
{ "type": "Feature", "properties": { "timeperiod": "L", "timeperi_1": "late-antique", "title": "Flörsheim" }, "geometry": { "type": "Point", "coordinates": [ 8.4313, 50.0144 ] } },
{ "type": "Feature", "properties": { "timeperiod": "L", "timeperi_1": "late-antique", "title": "Feresne?" }, "geometry": { "type": "Point", "coordinates": [ 5.7434, 51.0206 ] } },
{ "type": "Feature", "properties": { "timeperiod": "RM", "timeperi_1": "roman,modern", "title": "Elewijt" }, "geometry": { "type": "Point", "coordinates": [ 4.497, 50.9601 ] } },
{ "type": "Feature", "properties": { "timeperiod": "RL", "timeperi_1": "roman,late-antique", "title": "Durnomagus" }, "geometry": { "type": "Point", "coordinates": [ 6.8421, 51.0931 ] } },
{ "type": "Feature", "properties": { "timeperiod": "HL", "timeperi_1": "hellenistic-republican,late-antique", "title": "Dunense Castrum" }, "geometry": { "type": "Point", "coordinates": [ 1.329, 48.0681 ] } },
{ "type": "Feature", "properties": { "timeperiod": "R", "timeperi_1": "roman", "title": "Duisburg-Rheinhausen" }, "geometry": { "type": "Point", "coordinates": [ 6.7279, 51.4093 ] } },
{ "type": "Feature", "properties": { "timeperiod": "R", "timeperi_1": "roman", "title": "Dorsten-Holsterhausen" }, "geometry": { "type": "Point", "coordinates": [ 6.9353, 51.6739 ] } },
{ "type": "Feature", "properties": { "timeperiod": "RLM", "timeperi_1": "roman,late-antique,modern", "title": "Ceuclum" }, "geometry": { "type": "Point", "coordinates": [ 5.8788, 51.7294 ] } },
{ "type": "Feature", "properties": { "timeperiod": "RM", "timeperi_1": "roman,modern", "title": "Castra Vetera" }, "geometry": { "type": "Point", "coordinates": [ 6.47, 51.6464 ] } },
{ "type": "Feature", "properties": { "timeperiod": "RL", "timeperi_1": "roman,late-antique", "title": "Castellum Mattiacorum" }, "geometry": { "type": "Point", "coordinates": [ 8.2827, 50.0086 ] } },
{ "type": "Feature", "properties": { "timeperiod": "RL", "timeperi_1": "roman,late-antique", "title": "Calo?" }, "geometry": { "type": "Point", "coordinates": [ 6.5825, 51.5691 ] } },
{ "type": "Feature", "properties": { "timeperiod": "R", "timeperi_1": "roman", "title": "Butzbach" }, "geometry": { "type": "Point", "coordinates": [ 8.6735, 50.4371 ] } },
{ "type": "Feature", "properties": { "timeperiod": "R", "timeperi_1": "roman", "title": "Burungum?" }, "geometry": { "type": "Point", "coordinates": [ 6.8678, 51.0652 ] } },
{ "type": "Feature", "properties": { "timeperiod": "RL", "timeperi_1": "roman,late-antique", "title": "Burginatium" }, "geometry": { "type": "Point", "coordinates": [ 6.3189, 51.7139 ] } },
{ "type": "Feature", "properties": { "timeperiod": "RRL", "timeperi_1": "roman,roman-early-empire-late-antique,late-antique", "title": "Bonna" }, "geometry": { "type": "Point", "coordinates": [ 7.0963, 50.7326 ] } },
{ "type": "Feature", "properties": { "timeperiod": "RL", "timeperi_1": "roman,late-antique", "title": "Bodobrica" }, "geometry": { "type": "Point", "coordinates": [ 7.5917, 50.231 ] } },
{ "type": "Feature", "properties": { "timeperiod": "RL", "timeperi_1": "roman,late-antique", "title": "Bad Münstereifel-Houverath" }, "geometry": { "type": "Point", "coordinates": [ 6.9045, 50.5405 ] } },
{ "type": "Feature", "properties": { "timeperiod": "HRLM", "timeperi_1": "hellenistic-republican,roman,late-antique,modern", "title": "Asse" }, "geometry": { "type": "Point", "coordinates": [ 4.2, 50.9105 ] } },
{ "type": "Feature", "properties": { "timeperiod": "RLM", "timeperi_1": "roman,late-antique,modern", "title": "Asciburgium" }, "geometry": { "type": "Point", "coordinates": [ 6.67, 51.4317 ] } },
{ "type": "Feature", "properties": { "timeperiod": "RL", "timeperi_1": "roman,late-antique", "title": "Argentorate" }, "geometry": { "type": "Point", "coordinates": [ 7.7511, 48.5819 ] } },
{ "type": "Feature", "properties": { "timeperiod": "RRLM", "timeperi_1": "roman,roman-early-empire-late-antique,late-antique,modern", "title": "*Altiaia" }, "geometry": { "type": "Point", "coordinates": [ 8.114, 49.7431 ] } },
{ "type": "Feature", "properties": { "timeperiod": "L", "timeperi_1": "late-antique", "title": "Alta Ripa" }, "geometry": { "type": "Point", "coordinates": [ 8.499, 49.4315 ] } },
{ "type": "Feature", "properties": { "timeperiod": "U", "timeperi_1": "urartian-eastern-anatolia", "title": "Van Fortress" }, "geometry": { "type": "Point", "coordinates": [ 43.3354, 38.5038 ] } },
{ "type": "Feature", "properties": { "timeperiod": "AC", "timeperi_1": "archaic,classical", "title": "Tell Gubba" }, "geometry": { "type": "Point", "coordinates": [ 45.0441, 34.2585 ] } },
{ "type": "Feature", "properties": { "timeperiod": "L", "timeperi_1": "late-antique", "title": "Qasr al-Hayr al-Sharqi\/Adada?" }, "geometry": { "type": "Point", "coordinates": [ 39.0711, 35.0741 ] } },
{ "type": "Feature", "properties": { "timeperiod": "RL", "timeperi_1": "roman,late-antique", "title": "Qal'a Jabbar" }, "geometry": { "type": "Point", "coordinates": [ 43.4111, 35.1745 ] } },
{ "type": "Feature", "properties": { "timeperiod": "RL", "timeperi_1": "roman,late-antique", "title": "Qal'a al-Bint" }, "geometry": { "type": "Point", "coordinates": [ 43.3504, 35.2789 ] } },
{ "type": "Feature", "properties": { "timeperiod": "R", "timeperi_1": "roman", "title": "Ertaje\/(Belesi) Biblada?" }, "geometry": { "type": "Point", "coordinates": [ 41.4115, 34.4743 ] } },
{ "type": "Feature", "properties": { "timeperiod": "R", "timeperi_1": "roman", "title": "Velunia(te)" }, "geometry": { "type": "Point", "coordinates": [ -3.5641, 56.01 ] } },
{ "type": "Feature", "properties": { "timeperiod": "R", "timeperi_1": "roman", "title": "Tameia?" }, "geometry": { "type": "Point", "coordinates": [ -3.1432, 56.6253 ] } },
{ "type": "Feature", "properties": { "timeperiod": "R", "timeperi_1": "roman", "title": "Strageath" }, "geometry": { "type": "Point", "coordinates": [ -3.7827, 56.3411 ] } },
{ "type": "Feature", "properties": { "timeperiod": "R", "timeperi_1": "roman", "title": "Stracathro" }, "geometry": { "type": "Point", "coordinates": [ -2.6556, 56.8097 ] } },
{ "type": "Feature", "properties": { "timeperiod": "L", "timeperi_1": "late-antique", "title": "Ravenscar" }, "geometry": { "type": "Point", "coordinates": [ -0.4908, 54.4034 ] } },
{ "type": "Feature", "properties": { "timeperiod": "R", "timeperi_1": "roman", "title": "Old Kilpatrick" }, "geometry": { "type": "Point", "coordinates": [ -4.4567, 55.924 ] } },
{ "type": "Feature", "properties": { "timeperiod": "L", "timeperi_1": "late-antique", "title": "Newton Kyme" }, "geometry": { "type": "Point", "coordinates": [ -1.2904, 53.8984 ] } },
{ "type": "Feature", "properties": { "timeperiod": "R", "timeperi_1": "roman", "title": "Mumrills" }, "geometry": { "type": "Point", "coordinates": [ -3.7363, 55.9964 ] } },
{ "type": "Feature", "properties": { "timeperiod": "R", "timeperi_1": "roman", "title": "Malling" }, "geometry": { "type": "Point", "coordinates": [ -4.3243, 56.1775 ] } },
{ "type": "Feature", "properties": { "timeperiod": "RL", "timeperi_1": "roman,late-antique", "title": "Luguvalium" }, "geometry": { "type": "Point", "coordinates": [ -2.9418, 54.897 ] } },
{ "type": "Feature", "properties": { "timeperiod": "R", "timeperi_1": "roman", "title": "Lindon?" }, "geometry": { "type": "Point", "coordinates": [ -4.4536, 56.0634 ] } },
{ "type": "Feature", "properties": { "timeperiod": "RL", "timeperi_1": "roman,late-antique", "title": "Lavatris" }, "geometry": { "type": "Point", "coordinates": [ -2.017, 54.5123 ] } },
{ "type": "Feature", "properties": { "timeperiod": "R", "timeperi_1": "roman", "title": "Kirkintilloch" }, "geometry": { "type": "Point", "coordinates": [ -4.1546, 55.9399 ] } },
{ "type": "Feature", "properties": { "timeperiod": "R", "timeperi_1": "roman", "title": "Kalagon\/Galacum" }, "geometry": { "type": "Point", "coordinates": [ -2.5903, 54.1717 ] } },
{ "type": "Feature", "properties": { "timeperiod": "R", "timeperi_1": "roman", "title": "Victoria?" }, "geometry": { "type": "Point", "coordinates": [ -3.424, 56.541 ] } },
{ "type": "Feature", "properties": { "timeperiod": "L", "timeperi_1": "late-antique", "title": "Huntcliff" }, "geometry": { "type": "Point", "coordinates": [ -0.9328, 54.5718 ] } },
{ "type": "Feature", "properties": { "timeperiod": "L", "timeperi_1": "late-antique", "title": "Goldsborough" }, "geometry": { "type": "Point", "coordinates": [ -0.711, 54.5207 ] } },
{ "type": "Feature", "properties": { "timeperiod": "L", "timeperi_1": "late-antique", "title": "Filey" }, "geometry": { "type": "Point", "coordinates": [ -0.2919, 54.2102 ] } },
{ "type": "Feature", "properties": { "timeperiod": "R", "timeperi_1": "roman", "title": "Fendoch" }, "geometry": { "type": "Point", "coordinates": [ -3.7009, 56.4355 ] } },
{ "type": "Feature", "properties": { "timeperiod": "R", "timeperi_1": "roman", "title": "Karbantorigon?" }, "geometry": { "type": "Point", "coordinates": [ -3.2857, 55.6437 ] } },
{ "type": "Feature", "properties": { "timeperiod": "RL", "timeperi_1": "roman,late-antique", "title": "Derventio" }, "geometry": { "type": "Point", "coordinates": [ -0.7894, 54.1342 ] } },
{ "type": "Feature", "properties": { "timeperiod": "R", "timeperi_1": "roman", "title": "Dalswinton" }, "geometry": { "type": "Point", "coordinates": [ -3.6703, 55.1516 ] } },
{ "type": "Feature", "properties": { "timeperiod": "R", "timeperi_1": "roman", "title": "Croy Hill" }, "geometry": { "type": "Point", "coordinates": [ -4.042, 55.959 ] } },
{ "type": "Feature", "properties": { "timeperiod": "R", "timeperi_1": "roman", "title": "Crawford" }, "geometry": { "type": "Point", "coordinates": [ -3.6541, 55.4702 ] } },
{ "type": "Feature", "properties": { "timeperiod": "RLM", "timeperi_1": "roman,late-antique,modern", "title": "*Coriosopitum\/Coria" }, "geometry": { "type": "Point", "coordinates": [ -2.0293, 54.9782 ] } },
{ "type": "Feature", "properties": { "timeperiod": "RLM", "timeperi_1": "roman,late-antique,modern", "title": "Castra Exploratorum" }, "geometry": { "type": "Point", "coordinates": [ -2.9459, 55.0366 ] } },
{ "type": "Feature", "properties": { "timeperiod": "R", "timeperi_1": "roman", "title": "Carpow" }, "geometry": { "type": "Point", "coordinates": [ -3.2868, 56.343 ] } },
{ "type": "Feature", "properties": { "timeperiod": "R", "timeperi_1": "roman", "title": "Cargill" }, "geometry": { "type": "Point", "coordinates": [ -3.3819, 56.5158 ] } },
{ "type": "Feature", "properties": { "timeperiod": "R", "timeperi_1": "roman", "title": "Cadder" }, "geometry": { "type": "Point", "coordinates": [ -4.2135, 55.9214 ] } },
{ "type": "Feature", "properties": { "timeperiod": "R", "timeperi_1": "roman", "title": "Bochastle" }, "geometry": { "type": "Point", "coordinates": [ -4.2162, 56.2441 ] } },
{ "type": "Feature", "properties": { "timeperiod": "R", "timeperi_1": "roman", "title": "Bertha" }, "geometry": { "type": "Point", "coordinates": [ -3.4644, 56.4234 ] } },
{ "type": "Feature", "properties": { "timeperiod": "R", "timeperi_1": "roman", "title": "Bearsden" }, "geometry": { "type": "Point", "coordinates": [ -4.3338, 55.9194 ] } },
{ "type": "Feature", "properties": { "timeperiod": "R", "timeperi_1": "roman", "title": "Barochan" }, "geometry": { "type": "Point", "coordinates": [ -4.537, 55.8849 ] } },
{ "type": "Feature", "properties": { "timeperiod": "R", "timeperi_1": "roman", "title": "Bar Hill" }, "geometry": { "type": "Point", "coordinates": [ -4.0837, 55.9565 ] } },
{ "type": "Feature", "properties": { "timeperiod": "R", "timeperi_1": "roman", "title": "Balmuildy" }, "geometry": { "type": "Point", "coordinates": [ -4.2523, 55.9194 ] } },
{ "type": "Feature", "properties": { "timeperiod": "R", "timeperi_1": "roman", "title": "Auchendavy" }, "geometry": { "type": "Point", "coordinates": [ -4.1245, 55.9479 ] } },
{ "type": "Feature", "properties": { "timeperiod": "R", "timeperi_1": "roman", "title": "Alone?\/Alauna?" }, "geometry": { "type": "Point", "coordinates": [ -2.7469, 54.3082 ] } },
{ "type": "Feature", "properties": { "timeperiod": "R", "timeperi_1": "roman", "title": "Alauna" }, "geometry": { "type": "Point", "coordinates": [ -1.8204, 55.3965 ] } },
{ "type": "Feature", "properties": { "timeperiod": "L", "timeperi_1": "late-antique", "title": "Parakan" }, "geometry": { "type": "Point", "coordinates": [ 45.7282, 39.1699 ] } },
{ "type": "Feature", "properties": { "timeperiod": "L", "timeperi_1": "late-antique", "title": "Kapan" }, "geometry": { "type": "Point", "coordinates": [ 46.4189, 39.2022 ] } },
{ "type": "Feature", "properties": { "timeperiod": "L", "timeperi_1": "late-antique", "title": "Balaberd" }, "geometry": { "type": "Point", "coordinates": [ 46.2416, 39.2689 ] } },
{ "type": "Feature", "properties": { "timeperiod": "L", "timeperi_1": "late-antique", "title": "*Zolocerta\/‘Coloceia’" }, "geometry": { "type": "Point", "coordinates": [ 44.2465, 39.9775 ] } },
{ "type": "Feature", "properties": { "timeperiod": "L", "timeperi_1": "late-antique", "title": "Ziata\/*Inzieta?" }, "geometry": { "type": "Point", "coordinates": [ 40.1762, 38.2523 ] } },
{ "type": "Feature", "properties": { "timeperiod": "NCU43EO2LANRL", "timeperi_1": "neolithic-middle-east,chalcolithic-mesopotamia,ubaid-early-dynastic-ii-mesopotamia,4th-millenium-bce,3rd-millennium-bc,early-dynastic-mesopotamia,old-babylonian-assyrian-mesopotamia,2nd-millenium-bce,later-2nd-millennium-bc-mesopotamia,archaic,neo-assyri", "title": "Tell Brak" }, "geometry": { "type": "Point", "coordinates": [ 41.0704, 36.6688 ] } },
{ "type": "Feature", "properties": { "timeperiod": "H", "timeperi_1": "hellenistic-republican", "title": "La Ràpita" }, "geometry": { "type": "Point", "coordinates": [ 0.8422, 41.7829 ] } },
{ "type": "Feature", "properties": { "timeperiod": "L", "timeperi_1": "late-antique", "title": "Puig Rom" }, "geometry": { "type": "Point", "coordinates": [ 3.1969, 42.2482 ] } },
{ "type": "Feature", "properties": { "timeperiod": "H", "timeperi_1": "hellenistic-republican", "title": "El Guijar" }, "geometry": { "type": "Point", "coordinates": [ -2.5335, 41.4859 ] } },
{ "type": "Feature", "properties": { "timeperiod": "H", "timeperi_1": "hellenistic-republican", "title": "Gabarda" }, "geometry": { "type": "Point", "coordinates": [ -0.2222, 41.9402 ] } },
{ "type": "Feature", "properties": { "timeperiod": "RLM", "timeperi_1": "roman,late-antique,modern", "title": "L’Ecluse" }, "geometry": { "type": "Point", "coordinates": [ 2.8423, 42.4827 ] } },
{ "type": "Feature", "properties": { "timeperiod": "H", "timeperi_1": "hellenistic-republican", "title": "Castra Aelia" }, "geometry": { "type": "Point", "coordinates": [ -1.1752, 41.7197 ] } },
{ "type": "Feature", "properties": { "timeperiod": "L", "timeperi_1": "late-antique", "title": "Castellnou de Sió" }, "geometry": { "type": "Point", "coordinates": [ 1.1441, 41.7675 ] } },
{ "type": "Feature", "properties": { "timeperiod": "R", "timeperi_1": "roman", "title": "Cabañas de Ebro" }, "geometry": { "type": "Point", "coordinates": [ -1.1638, 41.7957 ] } },
{ "type": "Feature", "properties": { "timeperiod": "H", "timeperi_1": "hellenistic-republican", "title": "El Atalayón" }, "geometry": { "type": "Point", "coordinates": [ -2.3835, 41.82 ] } },
{ "type": "Feature", "properties": { "timeperiod": "RL", "timeperi_1": "roman,late-antique", "title": "Petavonium" }, "geometry": { "type": "Point", "coordinates": [ -5.9834, 42.09 ] } },
{ "type": "Feature", "properties": { "timeperiod": "RLM", "timeperi_1": "roman,late-antique,modern", "title": "Legio VII Gemina" }, "geometry": { "type": "Point", "coordinates": [ -5.5667, 42.5995 ] } },
{ "type": "Feature", "properties": { "timeperiod": "R", "timeperi_1": "roman", "title": "Cohors IV Gallorum" }, "geometry": { "type": "Point", "coordinates": [ -5.979, 42.1961 ] } },
{ "type": "Feature", "properties": { "timeperiod": "ACH", "timeperi_1": "archaic,classical,hellenistic-republican", "title": "La Giostra" }, "geometry": { "type": "Point", "coordinates": [ 12.5716, 41.7778 ] } },
{ "type": "Feature", "properties": { "timeperiod": "RRL", "timeperi_1": "roman,roman-early-empire-late-antique,late-antique", "title": "Castra Albana" }, "geometry": { "type": "Point", "coordinates": [ 12.6653, 41.7326 ] } },
{ "type": "Feature", "properties": { "timeperiod": "RLM", "timeperi_1": "roman,late-antique,modern", "title": "Centum Cellae" }, "geometry": { "type": "Point", "coordinates": [ 11.7968, 42.0912 ] } },
{ "type": "Feature", "properties": { "timeperiod": "RL", "timeperi_1": "roman,late-antique", "title": "Vindocinum" }, "geometry": { "type": "Point", "coordinates": [ 1.0698, 47.7807 ] } },
{ "type": "Feature", "properties": { "timeperiod": "RL", "timeperi_1": "roman,late-antique", "title": "Beroe" }, "geometry": { "type": "Point", "coordinates": [ 28.1395, 44.8955 ] } },
{ "type": "Feature", "properties": { "timeperiod": "R", "timeperi_1": "roman", "title": "Băneasa" }, "geometry": { "type": "Point", "coordinates": [ 24.9513, 43.94 ] } },
{ "type": "Feature", "properties": { "timeperiod": "RL", "timeperi_1": "roman,late-antique", "title": "Axiopolis" }, "geometry": { "type": "Point", "coordinates": [ 28.0218, 44.3319 ] } },
{ "type": "Feature", "properties": { "timeperiod": "RL", "timeperi_1": "roman,late-antique", "title": "Asamus" }, "geometry": { "type": "Point", "coordinates": [ 24.8522, 43.633 ] } },
{ "type": "Feature", "properties": { "timeperiod": "R", "timeperi_1": "roman", "title": "Arutela" }, "geometry": { "type": "Point", "coordinates": [ 24.3123, 45.2769 ] } },
{ "type": "Feature", "properties": { "timeperiod": "RL", "timeperi_1": "roman,late-antique", "title": "Argamum" }, "geometry": { "type": "Point", "coordinates": [ 28.94, 44.7581 ] } },
{ "type": "Feature", "properties": { "timeperiod": "RL", "timeperi_1": "roman,late-antique", "title": "Appiaria" }, "geometry": { "type": "Point", "coordinates": [ 26.2456, 43.9877 ] } },
{ "type": "Feature", "properties": { "timeperiod": "R", "timeperi_1": "roman", "title": "Angustia?" }, "geometry": { "type": "Point", "coordinates": [ 26.3038, 46.0417 ] } },
{ "type": "Feature", "properties": { "timeperiod": "RL", "timeperi_1": "roman,late-antique", "title": "Altinum" }, "geometry": { "type": "Point", "coordinates": [ 27.6994, 44.1886 ] } },
{ "type": "Feature", "properties": { "timeperiod": "RL", "timeperi_1": "roman,late-antique", "title": "Altimir" }, "geometry": { "type": "Point", "coordinates": [ 23.8134, 43.528 ] } },
{ "type": "Feature", "properties": { "timeperiod": "R", "timeperi_1": "roman", "title": "Aliobrix" }, "geometry": { "type": "Point", "coordinates": [ 28.5056, 45.3266 ] } },
{ "type": "Feature", "properties": { "timeperiod": "R", "timeperi_1": "roman", "title": "Albota" }, "geometry": { "type": "Point", "coordinates": [ 24.8481, 44.7815 ] } },
{ "type": "Feature", "properties": { "timeperiod": "RL", "timeperi_1": "roman,late-antique", "title": "Aegyssus" }, "geometry": { "type": "Point", "coordinates": [ 28.8064, 45.1798 ] } },
{ "type": "Feature", "properties": { "timeperiod": "R", "timeperi_1": "roman", "title": "Acidava" }, "geometry": { "type": "Point", "coordinates": [ 24.2646, 44.3781 ] } },
{ "type": "Feature", "properties": { "timeperiod": "RL", "timeperi_1": "roman,late-antique", "title": "Žabari" }, "geometry": { "type": "Point", "coordinates": [ 21.2251, 44.3672 ] } },
{ "type": "Feature", "properties": { "timeperiod": "L", "timeperi_1": "late-antique", "title": "Zlata" }, "geometry": { "type": "Point", "coordinates": [ 21.6445, 43.0628 ] } },
{ "type": "Feature", "properties": { "timeperiod": "R", "timeperi_1": "roman", "title": "Zăvalu" }, "geometry": { "type": "Point", "coordinates": [ 23.7901, 43.809 ] } },
{ "type": "Feature", "properties": { "timeperiod": "R", "timeperi_1": "roman", "title": "Vršac" }, "geometry": { "type": "Point", "coordinates": [ 21.3002, 45.1227 ] } },
{ "type": "Feature", "properties": { "timeperiod": "RL", "timeperi_1": "roman,late-antique", "title": "Vrbica" }, "geometry": { "type": "Point", "coordinates": [ 22.2702, 43.6895 ] } },
{ "type": "Feature", "properties": { "timeperiod": "RL", "timeperi_1": "roman,late-antique", "title": "Vodna" }, "geometry": { "type": "Point", "coordinates": [ 22.7056, 43.8526 ] } },
{ "type": "Feature", "properties": { "timeperiod": "R", "timeperi_1": "roman", "title": "Vîrţu" }, "geometry": { "type": "Point", "coordinates": [ 23.1359, 44.9151 ] } },
{ "type": "Feature", "properties": { "timeperiod": "R", "timeperi_1": "roman", "title": "Vîrtop" }, "geometry": { "type": "Point", "coordinates": [ 23.4144, 45.1694 ] } },
{ "type": "Feature", "properties": { "timeperiod": "R", "timeperi_1": "roman", "title": "Vîrful lui Pătru" }, "geometry": { "type": "Point", "coordinates": [ 23.4521, 45.5957 ] } },
{ "type": "Feature", "properties": { "timeperiod": "L", "timeperi_1": "late-antique", "title": "Velika Livadica" }, "geometry": { "type": "Point", "coordinates": [ 22.0165, 44.5326 ] } },
{ "type": "Feature", "properties": { "timeperiod": "RL", "timeperi_1": "roman,late-antique", "title": "Vajuga" }, "geometry": { "type": "Point", "coordinates": [ 22.6198, 44.5434 ] } },
{ "type": "Feature", "properties": { "timeperiod": "L", "timeperi_1": "late-antique", "title": "Ušće" }, "geometry": { "type": "Point", "coordinates": [ 19.9946, 44.6289 ] } },
{ "type": "Feature", "properties": { "timeperiod": "RL", "timeperi_1": "roman,late-antique", "title": "*Una" }, "geometry": { "type": "Point", "coordinates": [ 22.35, 44.4833 ] } },
{ "type": "Feature", "properties": { "timeperiod": "RL", "timeperi_1": "roman,late-antique", "title": "Tsar Petrovo" }, "geometry": { "type": "Point", "coordinates": [ 22.6358, 43.9589 ] } },
{ "type": "Feature", "properties": { "timeperiod": "L", "timeperi_1": "late-antique", "title": "Trpičevski potok" }, "geometry": { "type": "Point", "coordinates": [ 21.7947, 44.633 ] } },
{ "type": "Feature", "properties": { "timeperiod": "RL", "timeperi_1": "roman,late-antique", "title": "Tricornium" }, "geometry": { "type": "Point", "coordinates": [ 20.65, 44.7332 ] } },
{ "type": "Feature", "properties": { "timeperiod": "RL", "timeperi_1": "roman,late-antique", "title": "Transdierna" }, "geometry": { "type": "Point", "coordinates": [ 22.4045, 44.6628 ] } },
{ "type": "Feature", "properties": { "timeperiod": "R", "timeperi_1": "roman", "title": "Tihău" }, "geometry": { "type": "Point", "coordinates": [ 23.3277, 47.2277 ] } },
{ "type": "Feature", "properties": { "timeperiod": "R", "timeperi_1": "roman", "title": "Tibiscum" }, "geometry": { "type": "Point", "coordinates": [ 22.1865, 45.4591 ] } },
{ "type": "Feature", "properties": { "timeperiod": "RL", "timeperi_1": "roman,late-antique", "title": "Taurunum" }, "geometry": { "type": "Point", "coordinates": [ 20.4115, 44.836 ] } },
{ "type": "Feature", "properties": { "timeperiod": "RL", "timeperi_1": "roman,late-antique", "title": "Târgovishte" }, "geometry": { "type": "Point", "coordinates": [ 22.7034, 43.5324 ] } },
{ "type": "Feature", "properties": { "timeperiod": "RL", "timeperi_1": "roman,late-antique", "title": "Taliata" }, "geometry": { "type": "Point", "coordinates": [ 22.1443, 44.4436 ] } },
{ "type": "Feature", "properties": { "timeperiod": "RL", "timeperi_1": "roman,late-antique", "title": "Svodje" }, "geometry": { "type": "Point", "coordinates": [ 22.2601, 42.978 ] } },
{ "type": "Feature", "properties": { "timeperiod": "RL", "timeperi_1": "roman,late-antique", "title": "Svilajnac" }, "geometry": { "type": "Point", "coordinates": [ 21.2, 44.2166 ] } },
{ "type": "Feature", "properties": { "timeperiod": "L", "timeperi_1": "late-antique", "title": "Stragari" }, "geometry": { "type": "Point", "coordinates": [ 20.6666, 44.1499 ] } },
{ "type": "Feature", "properties": { "timeperiod": "L", "timeperi_1": "late-antique", "title": "Stalać" }, "geometry": { "type": "Point", "coordinates": [ 21.4252, 43.6778 ] } },
{ "type": "Feature", "properties": { "timeperiod": "RL", "timeperi_1": "roman,late-antique", "title": "Sopot" }, "geometry": { "type": "Point", "coordinates": [ 20.5973, 44.5088 ] } },
{ "type": "Feature", "properties": { "timeperiod": "L", "timeperi_1": "late-antique", "title": "Slovac" }, "geometry": { "type": "Point", "coordinates": [ 20.0851, 44.3463 ] } },
{ "type": "Feature", "properties": { "timeperiod": "L", "timeperi_1": "late-antique", "title": "Slatina" }, "geometry": { "type": "Point", "coordinates": [ 19.9285, 44.405 ] } },
{ "type": "Feature", "properties": { "timeperiod": "R", "timeperi_1": "roman", "title": "Sînnicolaul Mare" }, "geometry": { "type": "Point", "coordinates": [ 20.6283, 46.0775 ] } },
{ "type": "Feature", "properties": { "timeperiod": "RL", "timeperi_1": "roman,late-antique", "title": "Sena" }, "geometry": { "type": "Point", "coordinates": [ 21.6083, 44.5268 ] } },
{ "type": "Feature", "properties": { "timeperiod": "R", "timeperi_1": "roman", "title": "Schela Cladovei" }, "geometry": { "type": "Point", "coordinates": [ 22.6134, 44.608 ] } },
{ "type": "Feature", "properties": { "timeperiod": "RL", "timeperi_1": "roman,late-antique", "title": "Savinac" }, "geometry": { "type": "Point", "coordinates": [ 22.0319, 43.8906 ] } },
{ "type": "Feature", "properties": { "timeperiod": "RL", "timeperi_1": "roman,late-antique", "title": "Šarkamen" }, "geometry": { "type": "Point", "coordinates": [ 22.3303, 44.2437 ] } },
{ "type": "Feature", "properties": { "timeperiod": "L", "timeperi_1": "late-antique", "title": "Saldum" }, "geometry": { "type": "Point", "coordinates": [ 21.96, 44.5927 ] } },
{ "type": "Feature", "properties": { "timeperiod": "RL", "timeperi_1": "roman,late-antique", "title": "Salaš Noćajski" }, "geometry": { "type": "Point", "coordinates": [ 19.5857, 44.9469 ] } },
{ "type": "Feature", "properties": { "timeperiod": "RL", "timeperi_1": "roman,late-antique", "title": "Salash" }, "geometry": { "type": "Point", "coordinates": [ 22.5277, 43.6135 ] } },
{ "type": "Feature", "properties": { "timeperiod": "R", "timeperi_1": "roman", "title": "Săcelu" }, "geometry": { "type": "Point", "coordinates": [ 23.5451, 45.1107 ] } },
{ "type": "Feature", "properties": { "timeperiod": "L", "timeperi_1": "late-antique", "title": "Šabac" }, "geometry": { "type": "Point", "coordinates": [ 19.6998, 44.7542 ] } },
{ "type": "Feature", "properties": { "timeperiod": "RL", "timeperi_1": "roman,late-antique", "title": "Rudnik" }, "geometry": { "type": "Point", "coordinates": [ 20.4955, 44.1161 ] } },
{ "type": "Feature", "properties": { "timeperiod": "RL", "timeperi_1": "roman,late-antique", "title": "Rittium" }, "geometry": { "type": "Point", "coordinates": [ 20.3216, 45.0664 ] } },
{ "type": "Feature", "properties": { "timeperiod": "RL", "timeperi_1": "roman,late-antique", "title": "Ribare" }, "geometry": { "type": "Point", "coordinates": [ 21.2837, 44.0066 ] } },
{ "type": "Feature", "properties": { "timeperiod": "RL", "timeperi_1": "roman,late-antique", "title": "Rgotina" }, "geometry": { "type": "Point", "coordinates": [ 22.2925, 43.9904 ] } },
{ "type": "Feature", "properties": { "timeperiod": "R", "timeperi_1": "roman", "title": "Războieni" }, "geometry": { "type": "Point", "coordinates": [ 23.8706, 46.4127 ] } },
{ "type": "Feature", "properties": { "timeperiod": "L", "timeperi_1": "late-antique", "title": "Ravna" }, "geometry": { "type": "Point", "coordinates": [ 22.0548, 44.4903 ] } },
{ "type": "Feature", "properties": { "timeperiod": "R", "timeperi_1": "roman", "title": "Ratiaria" }, "geometry": { "type": "Point", "coordinates": [ 22.9049, 43.8174 ] } },
{ "type": "Feature", "properties": { "timeperiod": "L", "timeperi_1": "late-antique", "title": "Rakinac" }, "geometry": { "type": "Point", "coordinates": [ 21.0554, 44.2538 ] } },
{ "type": "Feature", "properties": { "timeperiod": "R", "timeperi_1": "roman", "title": "Răcari" }, "geometry": { "type": "Point", "coordinates": [ 23.5718, 44.514 ] } },
{ "type": "Feature", "properties": { "timeperiod": "R", "timeperi_1": "roman", "title": "Puţinei" }, "geometry": { "type": "Point", "coordinates": [ 22.702, 44.6807 ] } },
{ "type": "Feature", "properties": { "timeperiod": "RL", "timeperi_1": "roman,late-antique", "title": "Prahovo" }, "geometry": { "type": "Point", "coordinates": [ 22.6058, 44.2873 ] } },
{ "type": "Feature", "properties": { "timeperiod": "RL", "timeperi_1": "roman,late-antique", "title": "Pontes" }, "geometry": { "type": "Point", "coordinates": [ 22.6538, 44.5896 ] } },
{ "type": "Feature", "properties": { "timeperiod": "RL", "timeperi_1": "roman,late-antique", "title": "Pomodiana\/Cumodina" }, "geometry": { "type": "Point", "coordinates": [ 23.4462, 43.8239 ] } },
{ "type": "Feature", "properties": { "timeperiod": "R", "timeperi_1": "roman", "title": "Pojejena de Sus" }, "geometry": { "type": "Point", "coordinates": [ 21.5805, 44.7602 ] } },
{ "type": "Feature", "properties": { "timeperiod": "RL", "timeperi_1": "roman,late-antique", "title": "Pincus" }, "geometry": { "type": "Point", "coordinates": [ 21.5109, 44.7606 ] } },
{ "type": "Feature", "properties": { "timeperiod": "L", "timeperi_1": "late-antique", "title": "Phlorentiana" }, "geometry": { "type": "Point", "coordinates": [ 22.85, 44.135 ] } },
{ "type": "Feature", "properties": { "timeperiod": "RL", "timeperi_1": "roman,late-antique", "title": "Pakleštica" }, "geometry": { "type": "Point", "coordinates": [ 22.741, 43.2066 ] } },
{ "type": "Feature", "properties": { "timeperiod": "RL", "timeperi_1": "roman,late-antique", "title": "Ovsinjac" }, "geometry": { "type": "Point", "coordinates": [ 22.1374, 43.1374 ] } },
{ "type": "Feature", "properties": { "timeperiod": "L", "timeperi_1": "late-antique", "title": "Orljane" }, "geometry": { "type": "Point", "coordinates": [ 21.8197, 43.1947 ] } },
{ "type": "Feature", "properties": { "timeperiod": "R", "timeperi_1": "roman", "title": "Orăştiora de Sus" }, "geometry": { "type": "Point", "coordinates": [ 23.1707, 45.7303 ] } },
{ "type": "Feature", "properties": { "timeperiod": "R", "timeperi_1": "roman", "title": "Optatiana" }, "geometry": { "type": "Point", "coordinates": [ 23.2517, 46.9861 ] } },
{ "type": "Feature", "properties": { "timeperiod": "RL", "timeperi_1": "roman,late-antique", "title": "Opletnja" }, "geometry": { "type": "Point", "coordinates": [ 23.4451, 43.1003 ] } },
{ "type": "Feature", "properties": { "timeperiod": "RL", "timeperi_1": "roman,late-antique", "title": "Onagrinum" }, "geometry": { "type": "Point", "coordinates": [ 19.6244, 45.2362 ] } },
{ "type": "Feature", "properties": { "timeperiod": "RL", "timeperi_1": "roman,late-antique", "title": "Oktabon" }, "geometry": { "type": "Point", "coordinates": [ 20.5585, 44.8143 ] } },
{ "type": "Feature", "properties": { "timeperiod": "RL", "timeperi_1": "roman,late-antique", "title": "Novae" }, "geometry": { "type": "Point", "coordinates": [ 21.8885, 44.6204 ] } },
{ "type": "Feature", "properties": { "timeperiod": "RL", "timeperi_1": "roman,late-antique", "title": "Neresnica" }, "geometry": { "type": "Point", "coordinates": [ 21.7165, 44.4434 ] } },
{ "type": "Feature", "properties": { "timeperiod": "RL", "timeperi_1": "roman,late-antique", "title": "Miloševa kula" }, "geometry": { "type": "Point", "coordinates": [ 22.1416, 44.287 ] } },
{ "type": "Feature", "properties": { "timeperiod": "RL", "timeperi_1": "roman,late-antique", "title": "Mihaljevći" }, "geometry": { "type": "Point", "coordinates": [ 19.3313, 44.1853 ] } },
{ "type": "Feature", "properties": { "timeperiod": "R", "timeperi_1": "roman", "title": "Micia" }, "geometry": { "type": "Point", "coordinates": [ 22.8149, 45.9146 ] } },
{ "type": "Feature", "properties": { "timeperiod": "L", "timeperi_1": "late-antique", "title": "Maskare" }, "geometry": { "type": "Point", "coordinates": [ 21.377, 43.6787 ] } },
{ "type": "Feature", "properties": { "timeperiod": "RL", "timeperi_1": "roman,late-antique", "title": "Marchevo" }, "geometry": { "type": "Point", "coordinates": [ 23.3451, 43.5122 ] } },
{ "type": "Feature", "properties": { "timeperiod": "RL", "timeperi_1": "roman,late-antique", "title": "Manasija" }, "geometry": { "type": "Point", "coordinates": [ 21.4697, 44.1005 ] } },
{ "type": "Feature", "properties": { "timeperiod": "RL", "timeperi_1": "roman,late-antique", "title": "Malata" }, "geometry": { "type": "Point", "coordinates": [ 19.6142, 45.2119 ] } },
{ "type": "Feature", "properties": { "timeperiod": "RL", "timeperi_1": "roman,late-antique", "title": "Mala Jasikova" }, "geometry": { "type": "Point", "coordinates": [ 22.3336, 44.0522 ] } },
{ "type": "Feature", "properties": { "timeperiod": "RL", "timeperi_1": "roman,late-antique", "title": "Makresh" }, "geometry": { "type": "Point", "coordinates": [ 22.66, 43.7686 ] } },
{ "type": "Feature", "properties": { "timeperiod": "R", "timeperi_1": "roman", "title": "Luncani-Tîrsa" }, "geometry": { "type": "Point", "coordinates": [ 23.1112, 45.6425 ] } },
{ "type": "Feature", "properties": { "timeperiod": "RL", "timeperi_1": "roman,late-antique", "title": "Lukovo" }, "geometry": { "type": "Point", "coordinates": [ 21.8278, 43.8001 ] } },
{ "type": "Feature", "properties": { "timeperiod": "RL", "timeperi_1": "roman,late-antique", "title": "Liljache" }, "geometry": { "type": "Point", "coordinates": [ 23.5224, 43.3226 ] } },
{ "type": "Feature", "properties": { "timeperiod": "L", "timeperi_1": "late-antique", "title": "Leskovac" }, "geometry": { "type": "Point", "coordinates": [ 21.9453, 42.9967 ] } },
{ "type": "Feature", "properties": { "timeperiod": "RL", "timeperi_1": "roman,late-antique", "title": "Lederata" }, "geometry": { "type": "Point", "coordinates": [ 21.3343, 44.8134 ] } },
{ "type": "Feature", "properties": { "timeperiod": "R", "timeperi_1": "roman", "title": "Largiana" }, "geometry": { "type": "Point", "coordinates": [ 23.1817, 47.1134 ] } },
{ "type": "Feature", "properties": { "timeperiod": "RL", "timeperi_1": "roman,late-antique", "title": "Krepoljin" }, "geometry": { "type": "Point", "coordinates": [ 21.6124, 44.2479 ] } },
{ "type": "Feature", "properties": { "timeperiod": "L", "timeperi_1": "late-antique", "title": "Krčmar" }, "geometry": { "type": "Point", "coordinates": [ 19.9862, 44.1546 ] } },
{ "type": "Feature", "properties": { "timeperiod": "RL", "timeperi_1": "roman,late-antique", "title": "Krachimir" }, "geometry": { "type": "Point", "coordinates": [ 22.5699, 43.574 ] } },
{ "type": "Feature", "properties": { "timeperiod": "L", "timeperi_1": "late-antique", "title": "Kovin" }, "geometry": { "type": "Point", "coordinates": [ 20.9833, 44.7499 ] } },
{ "type": "Feature", "properties": { "timeperiod": "RL", "timeperi_1": "roman,late-antique", "title": "Kostol" }, "geometry": { "type": "Point", "coordinates": [ 22.2746, 43.9125 ] } },
{ "type": "Feature", "properties": { "timeperiod": "RL", "timeperi_1": "roman,late-antique", "title": "Koshava" }, "geometry": { "type": "Point", "coordinates": [ 23.0297, 44.0733 ] } },
{ "type": "Feature", "properties": { "timeperiod": "RL", "timeperi_1": "roman,late-antique", "title": "Korman" }, "geometry": { "type": "Point", "coordinates": [ 21.6258, 43.5431 ] } },
{ "type": "Feature", "properties": { "timeperiod": "RL", "timeperi_1": "roman,late-antique", "title": "Korbovo" }, "geometry": { "type": "Point", "coordinates": [ 22.7191, 44.5307 ] } },
{ "type": "Feature", "properties": { "timeperiod": "RL", "timeperi_1": "roman,late-antique", "title": "Klisura" }, "geometry": { "type": "Point", "coordinates": [ 21.8543, 43.206 ] } },
{ "type": "Feature", "properties": { "timeperiod": "R", "timeperi_1": "roman", "title": "Jigorul Mare" }, "geometry": { "type": "Point", "coordinates": [ 23.1132, 45.6001 ] } },
{ "type": "Feature", "properties": { "timeperiod": "RL", "timeperi_1": "roman,late-antique", "title": "Jezero" }, "geometry": { "type": "Point", "coordinates": [ 21.5204, 44.0272 ] } },
{ "type": "Feature", "properties": { "timeperiod": "RL", "timeperi_1": "roman,late-antique", "title": "Jasen" }, "geometry": { "type": "Point", "coordinates": [ 22.9202, 44.0741 ] } },
{ "type": "Feature", "properties": { "timeperiod": "R", "timeperi_1": "roman", "title": "Izvorul Frumos" }, "geometry": { "type": "Point", "coordinates": [ 22.495, 44.4543 ] } },
{ "type": "Feature", "properties": { "timeperiod": "R", "timeperi_1": "roman", "title": "Izvoarele" }, "geometry": { "type": "Point", "coordinates": [ 22.6609, 44.3097 ] } },
{ "type": "Feature", "properties": { "timeperiod": "R", "timeperi_1": "roman", "title": "Ilişua" }, "geometry": { "type": "Point", "coordinates": [ 24.0704, 47.2303 ] } },
{ "type": "Feature", "properties": { "timeperiod": "R", "timeperi_1": "roman", "title": "Ighiu" }, "geometry": { "type": "Point", "coordinates": [ 23.4799, 46.1454 ] } },
{ "type": "Feature", "properties": { "timeperiod": "RL", "timeperi_1": "roman,late-antique", "title": "Hum" }, "geometry": { "type": "Point", "coordinates": [ 21.9125, 43.3574 ] } },
{ "type": "Feature", "properties": { "timeperiod": "RL", "timeperi_1": "roman,late-antique", "title": "Hinova" }, "geometry": { "type": "Point", "coordinates": [ 22.7773, 44.5381 ] } },
{ "type": "Feature", "properties": { "timeperiod": "L", "timeperi_1": "late-antique", "title": "Hatvan" }, "geometry": { "type": "Point", "coordinates": [ 19.6698, 47.668 ] } },
{ "type": "Feature", "properties": { "timeperiod": "RL", "timeperi_1": "roman,late-antique", "title": "Hajdučka Vodenica" }, "geometry": { "type": "Point", "coordinates": [ 22.2802, 44.6001 ] } },
{ "type": "Feature", "properties": { "timeperiod": "R", "timeperi_1": "roman", "title": "Grebenac" }, "geometry": { "type": "Point", "coordinates": [ 21.2328, 44.8978 ] } },
{ "type": "Feature", "properties": { "timeperiod": "L", "timeperi_1": "late-antique", "title": "Grdelica" }, "geometry": { "type": "Point", "coordinates": [ 22.07, 42.9017 ] } },
{ "type": "Feature", "properties": { "timeperiod": "RL", "timeperi_1": "roman,late-antique", "title": "Gradeshnitsa" }, "geometry": { "type": "Point", "coordinates": [ 23.4808, 43.4862 ] } },
{ "type": "Feature", "properties": { "timeperiod": "RL", "timeperi_1": "roman,late-antique", "title": "Gradac" }, "geometry": { "type": "Point", "coordinates": [ 22.1958, 44.4498 ] } },
{ "type": "Feature", "properties": { "timeperiod": "L", "timeperi_1": "late-antique", "title": "Grad" }, "geometry": { "type": "Point", "coordinates": [ 21.2129, 42.8952 ] } },
{ "type": "Feature", "properties": { "timeperiod": "RL", "timeperi_1": "roman,late-antique", "title": "Govezhda" }, "geometry": { "type": "Point", "coordinates": [ 22.9665, 43.3019 ] } },
{ "type": "Feature", "properties": { "timeperiod": "RL", "timeperi_1": "roman,late-antique", "title": "Gornje Košlje" }, "geometry": { "type": "Point", "coordinates": [ 19.5917, 44.1465 ] } },
{ "type": "Feature", "properties": { "timeperiod": "RL", "timeperi_1": "roman,late-antique", "title": "Gornja Kamenica" }, "geometry": { "type": "Point", "coordinates": [ 22.3669, 43.4883 ] } },
{ "type": "Feature", "properties": { "timeperiod": "RL", "timeperi_1": "roman,late-antique", "title": "Gorni Lom" }, "geometry": { "type": "Point", "coordinates": [ 22.7451, 43.4835 ] } },
{ "type": "Feature", "properties": { "timeperiod": "RL", "timeperi_1": "roman,late-antique", "title": "Gornea" }, "geometry": { "type": "Point", "coordinates": [ 21.8552, 44.6806 ] } },
{ "type": "Feature", "properties": { "timeperiod": "RL", "timeperi_1": "roman,late-antique", "title": "Gomotartsi" }, "geometry": { "type": "Point", "coordinates": [ 22.9679, 44.0913 ] } },
{ "type": "Feature", "properties": { "timeperiod": "RL", "timeperi_1": "roman,late-antique", "title": "Godljevo" }, "geometry": { "type": "Point", "coordinates": [ 19.837, 44.0294 ] } },
{ "type": "Feature", "properties": { "timeperiod": "RL", "timeperi_1": "roman,late-antique", "title": "Glušci" }, "geometry": { "type": "Point", "coordinates": [ 19.5489, 44.89 ] } },
{ "type": "Feature", "properties": { "timeperiod": "RL", "timeperi_1": "roman,late-antique", "title": "Gjurgich" }, "geometry": { "type": "Point", "coordinates": [ 22.8736, 43.551 ] } },
{ "type": "Feature", "properties": { "timeperiod": "R", "timeperi_1": "roman", "title": "Gilău" }, "geometry": { "type": "Point", "coordinates": [ 23.3918, 46.7541 ] } },
{ "type": "Feature", "properties": { "timeperiod": "R", "timeperi_1": "roman", "title": "Gherla" }, "geometry": { "type": "Point", "coordinates": [ 23.8999, 47.0198 ] } },
{ "type": "Feature", "properties": { "timeperiod": "RL", "timeperi_1": "roman,late-antique", "title": "‘Gerulatis’" }, "geometry": { "type": "Point", "coordinates": [ 22.25, 44.4635 ] } },
{ "type": "Feature", "properties": { "timeperiod": "R", "timeperi_1": "roman", "title": "Germisara" }, "geometry": { "type": "Point", "coordinates": [ 23.1644, 45.8971 ] } },
{ "type": "Feature", "properties": { "timeperiod": "RL", "timeperi_1": "roman,late-antique", "title": "Georgi Damjanovo" }, "geometry": { "type": "Point", "coordinates": [ 23.0309, 43.3857 ] } },
{ "type": "Feature", "properties": { "timeperiod": "RL", "timeperi_1": "roman,late-antique", "title": "Gavril Genovo" }, "geometry": { "type": "Point", "coordinates": [ 23.0584, 43.3975 ] } },
{ "type": "Feature", "properties": { "timeperiod": "RL", "timeperi_1": "roman,late-antique", "title": "Gaganitsa" }, "geometry": { "type": "Point", "coordinates": [ 23.1061, 43.3288 ] } },
{ "type": "Feature", "properties": { "timeperiod": "R", "timeperi_1": "roman", "title": "Foeni" }, "geometry": { "type": "Point", "coordinates": [ 20.8754, 45.497 ] } },
{ "type": "Feature", "properties": { "timeperiod": "RL", "timeperi_1": "roman,late-antique", "title": "Erden" }, "geometry": { "type": "Point", "coordinates": [ 23.287, 43.4813 ] } },
{ "type": "Feature", "properties": { "timeperiod": "RL", "timeperi_1": "roman,late-antique", "title": "Egeta" }, "geometry": { "type": "Point", "coordinates": [ 22.4453, 44.4691 ] } },
{ "type": "Feature", "properties": { "timeperiod": "RL", "timeperi_1": "roman,late-antique", "title": "Dvorište" }, "geometry": { "type": "Point", "coordinates": [ 21.6398, 44.6003 ] } },
{ "type": "Feature", "properties": { "timeperiod": "RL", "timeperi_1": "roman,late-antique", "title": "Dushinci" }, "geometry": { "type": "Point", "coordinates": [ 22.6688, 42.7016 ] } },
{ "type": "Feature", "properties": { "timeperiod": "R", "timeperi_1": "roman", "title": "Dupljaja" }, "geometry": { "type": "Point", "coordinates": [ 21.2751, 44.9271 ] } },
{ "type": "Feature", "properties": { "timeperiod": "RL", "timeperi_1": "roman,late-antique", "title": "Draškova kutina" }, "geometry": { "type": "Point", "coordinates": [ 22.0225, 43.2388 ] } },
{ "type": "Feature", "properties": { "timeperiod": "RL", "timeperi_1": "roman,late-antique", "title": "Dorticum" }, "geometry": { "type": "Point", "coordinates": [ 22.7362, 44.1927 ] } },
{ "type": "Feature", "properties": { "timeperiod": "RL", "timeperi_1": "roman,late-antique", "title": "Dolno Ozirovo" }, "geometry": { "type": "Point", "coordinates": [ 23.3493, 43.2392 ] } },
{ "type": "Feature", "properties": { "timeperiod": "RL", "timeperi_1": "roman,late-antique", "title": "Dolno Linevo" }, "geometry": { "type": "Point", "coordinates": [ 23.3258, 43.8431 ] } },
{ "type": "Feature", "properties": { "timeperiod": "L", "timeperi_1": "late-antique", "title": "Dobra" }, "geometry": { "type": "Point", "coordinates": [ 21.9095, 44.632 ] } },
{ "type": "Feature", "properties": { "timeperiod": "L", "timeperi_1": "late-antique", "title": "Djunis" }, "geometry": { "type": "Point", "coordinates": [ 21.5394, 43.6056 ] } },
{ "type": "Feature", "properties": { "timeperiod": "L", "timeperi_1": "late-antique", "title": "Divić" }, "geometry": { "type": "Point", "coordinates": [ 19.1131, 44.3652 ] } },
{ "type": "Feature", "properties": { "timeperiod": "RL", "timeperi_1": "roman,late-antique", "title": "*Diana" }, "geometry": { "type": "Point", "coordinates": [ 22.5569, 44.6408 ] } },
{ "type": "Feature", "properties": { "timeperiod": "L", "timeperi_1": "late-antique", "title": "Debrc" }, "geometry": { "type": "Point", "coordinates": [ 19.9028, 44.6226 ] } },
{ "type": "Feature", "properties": { "timeperiod": "R", "timeperi_1": "roman", "title": "Dalboşeţ" }, "geometry": { "type": "Point", "coordinates": [ 21.9555, 44.8653 ] } },
{ "type": "Feature", "properties": { "timeperiod": "RL", "timeperi_1": "roman,late-antique", "title": "Cusum" }, "geometry": { "type": "Point", "coordinates": [ 19.8622, 45.2522 ] } },
{ "type": "Feature", "properties": { "timeperiod": "RL", "timeperi_1": "roman,late-antique", "title": "Cuppae" }, "geometry": { "type": "Point", "coordinates": [ 21.6383, 44.6511 ] } },
{ "type": "Feature", "properties": { "timeperiod": "RL", "timeperi_1": "roman,late-antique", "title": "Cuccium" }, "geometry": { "type": "Point", "coordinates": [ 19.3758, 45.224 ] } },
{ "type": "Feature", "properties": { "timeperiod": "RL", "timeperi_1": "roman,late-antique", "title": "Crna Trava" }, "geometry": { "type": "Point", "coordinates": [ 22.3146, 42.8753 ] } },
{ "type": "Feature", "properties": { "timeperiod": "HR", "timeperi_1": "hellenistic-republican,roman", "title": "Costeşti" }, "geometry": { "type": "Point", "coordinates": [ 23.166, 45.7065 ] } },
{ "type": "Feature", "properties": { "timeperiod": "L", "timeperi_1": "late-antique", "title": "Contra Constantiam" }, "geometry": { "type": "Point", "coordinates": [ 19.1632, 47.683 ] } },
{ "type": "Feature", "properties": { "timeperiod": "R", "timeperi_1": "roman", "title": "Comărnicel" }, "geometry": { "type": "Point", "coordinates": [ 23.379, 45.6182 ] } },
{ "type": "Feature", "properties": { "timeperiod": "R", "timeperi_1": "roman", "title": "Certiae" }, "geometry": { "type": "Point", "coordinates": [ 23.2023, 47.1469 ] } },
{ "type": "Feature", "properties": { "timeperiod": "R", "timeperi_1": "roman", "title": "Centum Putea" }, "geometry": { "type": "Point", "coordinates": [ 21.5855, 45.267 ] } },
{ "type": "Feature", "properties": { "timeperiod": "R", "timeperi_1": "roman", "title": "Cenad" }, "geometry": { "type": "Point", "coordinates": [ 20.5858, 46.1381 ] } },
{ "type": "Feature", "properties": { "timeperiod": "ACHR", "timeperi_1": "archaic,classical,hellenistic-republican,roman", "title": "Old Oswestry" }, "geometry": { "type": "Point", "coordinates": [ -3.0487, 52.8718 ] } },
{ "type": "Feature", "properties": { "timeperiod": "R", "timeperi_1": "roman", "title": "Las Brujas" }, "geometry": { "type": "Point", "coordinates": [ -6.2213, 39.9486 ] } },
{ "type": "Feature", "properties": { "timeperiod": "H", "timeperi_1": "hellenistic-republican", "title": "Alto do Castelo" }, "geometry": { "type": "Point", "coordinates": [ -8.5845, 39.2599 ] } },
{ "type": "Feature", "properties": { "timeperiod": "L", "timeperi_1": "late-antique", "title": "*Sella" }, "geometry": { "type": "Point", "coordinates": [ -1.2667, 47.3362 ] } },
{ "type": "Feature", "properties": { "timeperiod": "L", "timeperi_1": "late-antique", "title": "Mercurius" }, "geometry": { "type": "Point", "coordinates": [ 1.3887, 44.496 ] } },
{ "type": "Feature", "properties": { "timeperiod": "L", "timeperi_1": "late-antique", "title": "*Malliacum" }, "geometry": { "type": "Point", "coordinates": [ 0.5546, 47.3838 ] } },
{ "type": "Feature", "properties": { "timeperiod": "RL", "timeperi_1": "roman,late-antique", "title": "Blauto\/Blavia" }, "geometry": { "type": "Point", "coordinates": [ -0.6614, 45.1291 ] } },
{ "type": "Feature", "properties": { "timeperiod": "RLM", "timeperi_1": "roman,late-antique,modern", "title": "Vindobona" }, "geometry": { "type": "Point", "coordinates": [ 16.3739, 48.2113 ] } },
{ "type": "Feature", "properties": { "timeperiod": "RL", "timeperi_1": "roman,late-antique", "title": "Stillfried" }, "geometry": { "type": "Point", "coordinates": [ 16.8433, 48.41 ] } },
{ "type": "Feature", "properties": { "timeperiod": "RLM", "timeperi_1": "roman,late-antique,modern", "title": "Petronell" }, "geometry": { "type": "Point", "coordinates": [ 16.8678, 48.1133 ] } },
{ "type": "Feature", "properties": { "timeperiod": "HRL", "timeperi_1": "hellenistic-republican,roman,late-antique", "title": "Oberleiserberg" }, "geometry": { "type": "Point", "coordinates": [ 16.3735, 48.559 ] } },
{ "type": "Feature", "properties": { "timeperiod": "R", "timeperi_1": "roman", "title": "Mušov-Burgstall" }, "geometry": { "type": "Point", "coordinates": [ 16.579, 48.9056 ] } },
{ "type": "Feature", "properties": { "timeperiod": "R", "timeperi_1": "roman", "title": "Mauerbach" }, "geometry": { "type": "Point", "coordinates": [ 16.1679, 48.2455 ] } },
{ "type": "Feature", "properties": { "timeperiod": "RL", "timeperi_1": "roman,late-antique", "title": "Klosterneuburg" }, "geometry": { "type": "Point", "coordinates": [ 16.325, 48.305 ] } },
{ "type": "Feature", "properties": { "timeperiod": "RL", "timeperi_1": "roman,late-antique", "title": "Gerulata" }, "geometry": { "type": "Point", "coordinates": [ 17.1497, 48.056 ] } },
{ "type": "Feature", "properties": { "timeperiod": "RL", "timeperi_1": "roman,late-antique", "title": "Comagena" }, "geometry": { "type": "Point", "coordinates": [ 16.052, 48.331 ] } },
{ "type": "Feature", "properties": { "timeperiod": "RL", "timeperi_1": "roman,late-antique", "title": "Carnuntum" }, "geometry": { "type": "Point", "coordinates": [ 16.8679, 48.1133 ] } },
{ "type": "Feature", "properties": { "timeperiod": "RL", "timeperi_1": "roman,late-antique", "title": "Aequinoctium" }, "geometry": { "type": "Point", "coordinates": [ 16.6167, 48.1167 ] } },
{ "type": "Feature", "properties": { "timeperiod": "R", "timeperi_1": "roman", "title": "Zunsweier" }, "geometry": { "type": "Point", "coordinates": [ 7.9483, 48.4239 ] } },
{ "type": "Feature", "properties": { "timeperiod": "R", "timeperi_1": "roman", "title": "Zuchering" }, "geometry": { "type": "Point", "coordinates": [ 11.4064, 48.7128 ] } },
{ "type": "Feature", "properties": { "timeperiod": "R", "timeperi_1": "roman", "title": "Welzheim" }, "geometry": { "type": "Point", "coordinates": [ 9.6422, 48.8714 ] } },
{ "type": "Feature", "properties": { "timeperiod": "R", "timeperi_1": "roman", "title": "Vetoniana" }, "geometry": { "type": "Point", "coordinates": [ 11.2639, 48.8839 ] } },
{ "type": "Feature", "properties": { "timeperiod": "R", "timeperi_1": "roman", "title": "Trennfurt" }, "geometry": { "type": "Point", "coordinates": [ 9.1774, 49.7753 ] } },
{ "type": "Feature", "properties": { "timeperiod": "RRL", "timeperi_1": "roman,roman-early-empire-late-antique,late-antique", "title": "Summuntorium" }, "geometry": { "type": "Point", "coordinates": [ 10.8264, 48.6463 ] } },
{ "type": "Feature", "properties": { "timeperiod": "R", "timeperi_1": "roman", "title": "Sulz" }, "geometry": { "type": "Point", "coordinates": [ 8.6318, 48.3624 ] } },
{ "type": "Feature", "properties": { "timeperiod": "R", "timeperi_1": "roman", "title": "Steinkirchen" }, "geometry": { "type": "Point", "coordinates": [ 12.8376, 48.8272 ] } },
{ "type": "Feature", "properties": { "timeperiod": "RL", "timeperi_1": "roman,late-antique", "title": "Sorviodurum" }, "geometry": { "type": "Point", "coordinates": [ 12.5964, 48.8868 ] } },
{ "type": "Feature", "properties": { "timeperiod": "R", "timeperi_1": "roman", "title": "Seligenstadt" }, "geometry": { "type": "Point", "coordinates": [ 8.9755, 50.0434 ] } },
{ "type": "Feature", "properties": { "timeperiod": "R", "timeperi_1": "roman", "title": "Schirenhof" }, "geometry": { "type": "Point", "coordinates": [ 9.7769, 48.7867 ] } },
{ "type": "Feature", "properties": { "timeperiod": "R", "timeperi_1": "roman", "title": "Ruffenhofen" }, "geometry": { "type": "Point", "coordinates": [ 10.4805, 49.0464 ] } },
{ "type": "Feature", "properties": { "timeperiod": "RLM", "timeperi_1": "roman,late-antique,modern", "title": "Reginum\/Castra Regina" }, "geometry": { "type": "Point", "coordinates": [ 12.0982, 49.0195 ] } },
{ "type": "Feature", "properties": { "timeperiod": "RL", "timeperi_1": "roman,late-antique", "title": "Rederzhausen" }, "geometry": { "type": "Point", "coordinates": [ 11.0035, 48.3387 ] } },
{ "type": "Feature", "properties": { "timeperiod": "R", "timeperi_1": "roman", "title": "Khirbet el-Umbashi" }, "geometry": { "type": "Point", "coordinates": [ 36.9394, 33.0554 ] } },
{ "type": "Feature", "properties": { "timeperiod": "RL", "timeperi_1": "roman,late-antique", "title": "Khan esh-Shamat" }, "geometry": { "type": "Point", "coordinates": [ 36.8719, 33.6708 ] } },
{ "type": "Feature", "properties": { "timeperiod": "R", "timeperi_1": "roman", "title": "Khan el-Jennajil" }, "geometry": { "type": "Point", "coordinates": [ 36.8752, 33.9414 ] } },
{ "type": "Feature", "properties": { "timeperiod": "R", "timeperi_1": "roman", "title": "Khan el-Abyad" }, "geometry": { "type": "Point", "coordinates": [ 36.9898, 34.0334 ] } },
{ "type": "Feature", "properties": { "timeperiod": "RL", "timeperi_1": "roman,late-antique", "title": "Khan Aiyash" }, "geometry": { "type": "Point", "coordinates": [ 36.4719, 33.6382 ] } },
{ "type": "Feature", "properties": { "timeperiod": "R", "timeperi_1": "roman", "title": "Jebel Seis" }, "geometry": { "type": "Point", "coordinates": [ 37.329, 33.3059 ] } },
{ "type": "Feature", "properties": { "timeperiod": "R", "timeperi_1": "roman", "title": "el-Hijan" }, "geometry": { "type": "Point", "coordinates": [ 36.5231, 33.355 ] } },
{ "type": "Feature", "properties": { "timeperiod": "RL", "timeperi_1": "roman,late-antique", "title": "Giv'at Qumi" }, "geometry": { "type": "Point", "coordinates": [ 35.3976, 32.5652 ] } },
{ "type": "Feature", "properties": { "timeperiod": "RL", "timeperi_1": "roman,late-antique", "title": "Diyatheh" }, "geometry": { "type": "Point", "coordinates": [ 36.86, 32.8053 ] } },
{ "type": "Feature", "properties": { "timeperiod": "R", "timeperi_1": "roman", "title": "Deir Jenube" }, "geometry": { "type": "Point", "coordinates": [ 36.739, 33.4091 ] } },
{ "type": "Feature", "properties": { "timeperiod": "R", "timeperi_1": "roman", "title": "Deir esh-Shair" }, "geometry": { "type": "Point", "coordinates": [ 36.6042, 32.9867 ] } },
{ "type": "Feature", "properties": { "timeperiod": "R", "timeperi_1": "roman", "title": "Deir el-Meyas" }, "geometry": { "type": "Point", "coordinates": [ 36.6223, 32.3495 ] } },
{ "type": "Feature", "properties": { "timeperiod": "H", "timeperi_1": "hellenistic-republican", "title": "Brochoi" }, "geometry": { "type": "Point", "coordinates": [ 35.8151, 33.7975 ] } },
{ "type": "Feature", "properties": { "timeperiod": "R", "timeperi_1": "roman", "title": "Bir Qesab" }, "geometry": { "type": "Point", "coordinates": [ 36.7756, 33.2926 ] } },
{ "type": "Feature", "properties": { "timeperiod": "RL", "timeperi_1": "roman,late-antique", "title": "Veriaraca" }, "geometry": { "type": "Point", "coordinates": [ 38.0821, 34.3855 ] } },
{ "type": "Feature", "properties": { "timeperiod": "E1CHHRRRTLLCMASMCCIOTE1OLKOM", "timeperi_1": "egyptian-hittite-levant,1200-bc-middle-east,classical,hellenistic-middle-east,hellenistic-republican,roman-middle-east,roman-early-empire-parthian-middle-east,roman,transition-roman-early-empire-late-antique,late-antique,late-antique-sasanian-middle-east", "title": "Tripolis" }, "geometry": { "type": "Point", "coordinates": [ 35.812, 34.449 ] } },
{ "type": "Feature", "properties": { "timeperiod": "L", "timeperi_1": "late-antique", "title": "Tetrapyrgium" }, "geometry": { "type": "Point", "coordinates": [ 38.813, 35.8017 ] } },
{ "type": "Feature", "properties": { "timeperiod": "R", "timeperi_1": "roman", "title": "Tahun el-Masek" }, "geometry": { "type": "Point", "coordinates": [ 38.1308, 34.7499 ] } },
{ "type": "Feature", "properties": { "timeperiod": "RL", "timeperi_1": "roman,late-antique", "title": "Sabboura" }, "geometry": { "type": "Point", "coordinates": [ 37.2213, 35.1943 ] } },
{ "type": "Feature", "properties": { "timeperiod": "R", "timeperi_1": "roman", "title": "Rasm es-Shaar" }, "geometry": { "type": "Point", "coordinates": [ 37.9837, 34.961 ] } },
{ "type": "Feature", "properties": { "timeperiod": "RL", "timeperi_1": "roman,late-antique", "title": "Oriza\/Oruba\/Oresa" }, "geometry": { "type": "Point", "coordinates": [ 38.9111, 35.0744 ] } },
{ "type": "Feature", "properties": { "timeperiod": "RL", "timeperi_1": "roman,late-antique", "title": "Khirbet el-Beida" }, "geometry": { "type": "Point", "coordinates": [ 37.932, 35.3825 ] } },
{ "type": "Feature", "properties": { "timeperiod": "RL", "timeperi_1": "roman,late-antique", "title": "Juwal" }, "geometry": { "type": "Point", "coordinates": [ 38.9571, 35.2707 ] } },
{ "type": "Feature", "properties": { "timeperiod": "RL", "timeperi_1": "roman,late-antique", "title": "Heliaramia" }, "geometry": { "type": "Point", "coordinates": [ 37.6205, 34.4111 ] } },
{ "type": "Feature", "properties": { "timeperiod": "RL", "timeperi_1": "roman,late-antique", "title": "Helela" }, "geometry": { "type": "Point", "coordinates": [ 38.733, 34.7787 ] } },
{ "type": "Feature", "properties": { "timeperiod": "R", "timeperi_1": "roman", "title": "Harbaqa" }, "geometry": { "type": "Point", "coordinates": [ 37.6658, 34.298 ] } },
{ "type": "Feature", "properties": { "timeperiod": "R", "timeperi_1": "roman", "title": "el-Mleke" }, "geometry": { "type": "Point", "coordinates": [ 38.3105, 34.1828 ] } },
{ "type": "Feature", "properties": { "timeperiod": "RL", "timeperi_1": "roman,late-antique", "title": "Dausara" }, "geometry": { "type": "Point", "coordinates": [ 38.5547, 35.9261 ] } },
{ "type": "Feature", "properties": { "timeperiod": "RL", "timeperi_1": "roman,late-antique", "title": "Cunna?" }, "geometry": { "type": "Point", "coordinates": [ 37.8321, 34.267 ] } },
{ "type": "Feature", "properties": { "timeperiod": "RL", "timeperi_1": "roman,late-antique", "title": "Cholle" }, "geometry": { "type": "Point", "coordinates": [ 38.8054, 35.5038 ] } },
{ "type": "Feature", "properties": { "timeperiod": "R", "timeperi_1": "roman", "title": "Bir Weshel" }, "geometry": { "type": "Point", "coordinates": [ 38.1368, 34.7818 ] } },
{ "type": "Feature", "properties": { "timeperiod": "2CHRLCM", "timeperi_1": "2nd-millenium-bce,classical,hellenistic-republican,roman,late-antique,crusader-seljuq-ayyubid-levant,modern", "title": "Arados" }, "geometry": { "type": "Point", "coordinates": [ 35.8594, 34.8584 ] } },
{ "type": "Feature", "properties": { "timeperiod": "RL", "timeperi_1": "roman,late-antique", "title": "Ammattha" }, "geometry": { "type": "Point", "coordinates": [ 37.6512, 35.6847 ] } },
{ "type": "Feature", "properties": { "timeperiod": "R", "timeperi_1": "roman", "title": "al-Basiri" }, "geometry": { "type": "Point", "coordinates": [ 37.6075, 34.1891 ] } },
{ "type": "Feature", "properties": { "timeperiod": "RL", "timeperi_1": "roman,late-antique", "title": "Adada?" }, "geometry": { "type": "Point", "coordinates": [ 38.8829, 34.9009 ] } },
{ "type": "Feature", "properties": { "timeperiod": "R", "timeperi_1": "roman", "title": "Vleuten-De Meern" }, "geometry": { "type": "Point", "coordinates": [ 5.0103, 52.1066 ] } },
{ "type": "Feature", "properties": { "timeperiod": "R", "timeperi_1": "roman", "title": "Velsen" }, "geometry": { "type": "Point", "coordinates": [ 4.6675, 52.454 ] } },
{ "type": "Feature", "properties": { "timeperiod": "RLM", "timeperi_1": "roman,late-antique,modern", "title": "Traiectum" }, "geometry": { "type": "Point", "coordinates": [ 5.1216, 52.0907 ] } },
{ "type": "Feature", "properties": { "timeperiod": "RLM", "timeperi_1": "roman,late-antique,modern", "title": "Praetorium Agrippinae" }, "geometry": { "type": "Point", "coordinates": [ 4.4336, 52.18 ] } },
{ "type": "Feature", "properties": { "timeperiod": "RM", "timeperi_1": "roman,modern", "title": "Nigrum Pullum" }, "geometry": { "type": "Point", "coordinates": [ 4.7272, 52.1058 ] } },
{ "type": "Feature", "properties": { "timeperiod": "R", "timeperi_1": "roman", "title": "Matilo" }, "geometry": { "type": "Point", "coordinates": [ 4.5184, 52.1503 ] } },
{ "type": "Feature", "properties": { "timeperiod": "R", "timeperi_1": "roman", "title": "Lugdunum" }, "geometry": { "type": "Point", "coordinates": [ 4.393, 52.212 ] } },
{ "type": "Feature", "properties": { "timeperiod": "R", "timeperi_1": "roman", "title": "Loo-Loowaard" }, "geometry": { "type": "Point", "coordinates": [ 5.9875, 51.9208 ] } },
{ "type": "Feature", "properties": { "timeperiod": "R", "timeperi_1": "roman", "title": "Levefanum?" }, "geometry": { "type": "Point", "coordinates": [ 5.3528, 51.9625 ] } },
{ "type": "Feature", "properties": { "timeperiod": "R", "timeperi_1": "roman", "title": "Laurum" }, "geometry": { "type": "Point", "coordinates": [ 4.8827, 52.0857 ] } },
{ "type": "Feature", "properties": { "timeperiod": "RL", "timeperi_1": "roman,late-antique", "title": "Huissen-Hazebergh" }, "geometry": { "type": "Point", "coordinates": [ 5.9414, 51.9374 ] } },
{ "type": "Feature", "properties": { "timeperiod": "RL", "timeperi_1": "roman,late-antique", "title": "Harenatium" }, "geometry": { "type": "Point", "coordinates": [ 6.1283, 51.8133 ] } },
{ "type": "Feature", "properties": { "timeperiod": "RL", "timeperi_1": "roman,late-antique", "title": "Grinnes" }, "geometry": { "type": "Point", "coordinates": [ 5.3508, 51.7998 ] } },
{ "type": "Feature", "properties": { "timeperiod": "R", "timeperi_1": "roman", "title": "Fectio" }, "geometry": { "type": "Point", "coordinates": [ 5.1642, 52.0585 ] } },
{ "type": "Feature", "properties": { "timeperiod": "R", "timeperi_1": "roman", "title": "Ermelo" }, "geometry": { "type": "Point", "coordinates": [ 5.6279, 52.3007 ] } },
{ "type": "Feature", "properties": { "timeperiod": "R", "timeperi_1": "roman", "title": "Driel-Baarskamp" }, "geometry": { "type": "Point", "coordinates": [ 5.8144, 51.961 ] } },
{ "type": "Feature", "properties": { "timeperiod": "RL", "timeperi_1": "roman,late-antique", "title": "Castra Herculis?" }, "geometry": { "type": "Point", "coordinates": [ 5.8736, 51.9708 ] } },
{ "type": "Feature", "properties": { "timeperiod": "R", "timeperi_1": "roman", "title": "Carvo?" }, "geometry": { "type": "Point", "coordinates": [ 5.5625, 51.9297 ] } },
{ "type": "Feature", "properties": { "timeperiod": "R", "timeperi_1": "roman", "title": "Carvium" }, "geometry": { "type": "Point", "coordinates": [ 6.0875, 51.8686 ] } },
{ "type": "Feature", "properties": { "timeperiod": "R", "timeperi_1": "roman", "title": "Bielefeld" }, "geometry": { "type": "Point", "coordinates": [ 8.4729, 52.0139 ] } },
{ "type": "Feature", "properties": { "timeperiod": "R", "timeperi_1": "roman", "title": "Bentumersiel" }, "geometry": { "type": "Point", "coordinates": [ 7.3912, 53.2463 ] } },
{ "type": "Feature", "properties": { "timeperiod": "R", "timeperi_1": "roman", "title": "Albaniana" }, "geometry": { "type": "Point", "coordinates": [ 4.658, 52.1284 ] } },
{ "type": "Feature", "properties": { "timeperiod": "HRL", "timeperi_1": "hellenistic-republican,roman,late-antique", "title": "Sadd-i Eskandar\/Sadd-i Anushirvan\/Qizil Alan" }, "geometry": { "type": "Point", "coordinates": [ 54.4232, 37.1062 ] } },
{ "type": "Feature", "properties": { "timeperiod": "RL", "timeperi_1": "roman,late-antique", "title": "Kharabshahr\/[Tamis]?\/[Tammisha]?" }, "geometry": { "type": "Point", "coordinates": [ 54.0697, 36.7333 ] } },
{ "type": "Feature", "properties": { "timeperiod": "IRL", "timeperi_1": "iron-age-britain,roman,late-antique", "title": "Chûn Castle" }, "geometry": { "type": "Point", "coordinates": [ -5.6337, 50.1487 ] } },
{ "type": "Feature", "properties": { "timeperiod": "CAHR", "timeperi_1": "classical,achaemenid-middle-east,hellenistic-republican,roman", "title": "Pasargadae\/Batrakatash" }, "geometry": { "type": "Point", "coordinates": [ 53.1727, 30.1914 ] } },
{ "type": "Feature", "properties": { "timeperiod": "RL", "timeperi_1": "roman,late-antique", "title": "Nurabad" }, "geometry": { "type": "Point", "coordinates": [ 51.499, 30.063 ] } },
{ "type": "Feature", "properties": { "timeperiod": "R", "timeperi_1": "roman", "title": "Pen-y-Gaer Roman fort" }, "geometry": { "type": "Point", "coordinates": [ -3.2095, 51.8898 ] } },
{ "type": "Feature", "properties": { "timeperiod": "RL", "timeperi_1": "roman,late-antique", "title": "Siphrios" }, "geometry": { "type": "Point", "coordinates": [ 40.2175, 37.3914 ] } },
{ "type": "Feature", "properties": { "timeperiod": "L", "timeperi_1": "late-antique", "title": "Shukaraba" }, "geometry": { "type": "Point", "coordinates": [ 41.5324, 38.0356 ] } },
{ "type": "Feature", "properties": { "timeperiod": "L", "timeperi_1": "late-antique", "title": "Sauras" }, "geometry": { "type": "Point", "coordinates": [ 40.8897, 37.5379 ] } },
{ "type": "Feature", "properties": { "timeperiod": "RL", "timeperi_1": "roman,late-antique", "title": "Satala" }, "geometry": { "type": "Point", "coordinates": [ 39.5979, 40.0278 ] } },
{ "type": "Feature", "properties": { "timeperiod": "L", "timeperi_1": "late-antique", "title": "Sargathon" }, "geometry": { "type": "Point", "coordinates": [ 41.0718, 37.1225 ] } },
{ "type": "Feature", "properties": { "timeperiod": "L", "timeperi_1": "late-antique", "title": "Sarbane\/Sisara" }, "geometry": { "type": "Point", "coordinates": [ 41.628, 37.1316 ] } },
{ "type": "Feature", "properties": { "timeperiod": "L", "timeperi_1": "late-antique", "title": "Saphchai" }, "geometry": { "type": "Point", "coordinates": [ 40.5584, 38.4682 ] } },
{ "type": "Feature", "properties": { "timeperiod": "RL", "timeperi_1": "roman,late-antique", "title": "Sapha\/Thilsaphata?" }, "geometry": { "type": "Point", "coordinates": [ 41.9819, 37.2642 ] } },
{ "type": "Feature", "properties": { "timeperiod": "L", "timeperi_1": "late-antique", "title": "*Samocharta" }, "geometry": { "type": "Point", "coordinates": [ 41.1455, 38.0854 ] } },
{ "type": "Feature", "properties": { "timeperiod": "L", "timeperi_1": "late-antique", "title": "(Ris)Kepha(s)" }, "geometry": { "type": "Point", "coordinates": [ 41.4131, 37.7142 ] } },
{ "type": "Feature", "properties": { "timeperiod": "L", "timeperi_1": "late-antique", "title": "Rhabdion" }, "geometry": { "type": "Point", "coordinates": [ 41.6091, 37.2221 ] } },
{ "type": "Feature", "properties": { "timeperiod": "L", "timeperi_1": "late-antique", "title": "Pheison" }, "geometry": { "type": "Point", "coordinates": [ 40.5474, 38.3653 ] } },
{ "type": "Feature", "properties": { "timeperiod": "L", "timeperi_1": "late-antique", "title": "Palios" }, "geometry": { "type": "Point", "coordinates": [ 39.8994, 39.0067 ] } },
{ "type": "Feature", "properties": { "timeperiod": "L", "timeperi_1": "late-antique", "title": "Mindon" }, "geometry": { "type": "Point", "coordinates": [ 41.7898, 37.3511 ] } },
{ "type": "Feature", "properties": { "timeperiod": "RL", "timeperi_1": "roman,late-antique", "title": "Metita" }, "geometry": { "type": "Point", "coordinates": [ 39.1442, 38.1611 ] } },
{ "type": "Feature", "properties": { "timeperiod": "L", "timeperi_1": "late-antique", "title": "Mertikerton" }, "geometry": { "type": "Point", "coordinates": [ 39.6237, 39.0067 ] } },
{ "type": "Feature", "properties": { "timeperiod": "L", "timeperi_1": "late-antique", "title": "Matzaron" }, "geometry": { "type": "Point", "coordinates": [ 40.9576, 37.4162 ] } },
{ "type": "Feature", "properties": { "timeperiod": "1RRTLLPCEAMECCIMOTE1POLOM", "timeperi_1": "1200-bc-middle-east,roman-middle-east,roman,transition-roman-early-empire-late-antique,late-antique,late-antique-sasanian-middle-east,persian-medieval-caucasus,caliphate-umayyad-middle-east,early-byzantine,abassid-middle-east,middle-byzantine,early-medie", "title": "Marde\/Margdis" }, "geometry": { "type": "Point", "coordinates": [ 40.7351, 37.3122 ] } },
{ "type": "Feature", "properties": { "timeperiod": "RL", "timeperi_1": "roman,late-antique", "title": "Mambouta\/Mambrathon" }, "geometry": { "type": "Point", "coordinates": [ 40.5007, 37.3312 ] } },
{ "type": "Feature", "properties": { "timeperiod": "L", "timeperi_1": "late-antique", "title": "Kitharizon" }, "geometry": { "type": "Point", "coordinates": [ 40.6414, 38.8391 ] } },
{ "type": "Feature", "properties": { "timeperiod": "RL", "timeperi_1": "roman,late-antique", "title": "Kerefto" }, "geometry": { "type": "Point", "coordinates": [ 39.1179, 38.2676 ] } },
{ "type": "Feature", "properties": { "timeperiod": "L", "timeperi_1": "late-antique", "title": "Idriphthon" }, "geometry": { "type": "Point", "coordinates": [ 40.9093, 37.6425 ] } },
{ "type": "Feature", "properties": { "timeperiod": "L", "timeperi_1": "late-antique", "title": "Hüşükani" }, "geometry": { "type": "Point", "coordinates": [ 39.099, 38.3362 ] } },
{ "type": "Feature", "properties": { "timeperiod": "L", "timeperi_1": "late-antique", "title": "Horren\/Lorne" }, "geometry": { "type": "Point", "coordinates": [ 40.7307, 37.2302 ] } },
{ "type": "Feature", "properties": { "timeperiod": "RL", "timeperi_1": "roman,late-antique", "title": "Haza\/Hassis" }, "geometry": { "type": "Point", "coordinates": [ 39.3333, 39.9833 ] } },
{ "type": "Feature", "properties": { "timeperiod": "CH", "timeperi_1": "classical,hellenistic-republican", "title": "Halaqu Qal'eh" }, "geometry": { "type": "Point", "coordinates": [ 45.5756, 38.7084 ] } },
{ "type": "Feature", "properties": { "timeperiod": "RL", "timeperi_1": "roman,late-antique", "title": "Ganaba" }, "geometry": { "type": "Point", "coordinates": [ 39.4742, 37.1251 ] } },
{ "type": "Feature", "properties": { "timeperiod": "RL", "timeperi_1": "roman,late-antique", "title": "(E)Legerda\/Illyrisos" }, "geometry": { "type": "Point", "coordinates": [ 40.5517, 38.5125 ] } },
{ "type": "Feature", "properties": { "timeperiod": "RL", "timeperi_1": "roman,late-antique", "title": "Dabanas" }, "geometry": { "type": "Point", "coordinates": [ 40.2109, 38.3625 ] } },
{ "type": "Feature", "properties": { "timeperiod": "RL", "timeperi_1": "roman,late-antique", "title": "Colchana" }, "geometry": { "type": "Point", "coordinates": [ 41.1, 37.9866 ] } },
{ "type": "Feature", "properties": { "timeperiod": "CL", "timeperi_1": "classical,late-antique", "title": "Chlomaron" }, "geometry": { "type": "Point", "coordinates": [ 41.4843, 38.0262 ] } },
{ "type": "Feature", "properties": { "timeperiod": "RL", "timeperi_1": "roman,late-antique", "title": "Birthon\/Virta?" }, "geometry": { "type": "Point", "coordinates": [ 40.9584, 37.7926 ] } },
{ "type": "Feature", "properties": { "timeperiod": "L", "timeperi_1": "late-antique", "title": "Bezabde\/Zabdaion Chorion" }, "geometry": { "type": "Point", "coordinates": [ 42.0462, 37.4032 ] } },
{ "type": "Feature", "properties": { "timeperiod": "L", "timeperi_1": "late-antique", "title": "Beioubaitha" }, "geometry": { "type": "Point", "coordinates": [ 41.0679, 37.3469 ] } },
{ "type": "Feature", "properties": { "timeperiod": "RL", "timeperi_1": "roman,late-antique", "title": "Barsalium" }, "geometry": { "type": "Point", "coordinates": [ 39.1967, 38.0881 ] } },
{ "type": "Feature", "properties": { "timeperiod": "L", "timeperi_1": "late-antique", "title": "*Banabela" }, "geometry": { "type": "Point", "coordinates": [ 40.8384, 37.3152 ] } },
{ "type": "Feature", "properties": { "timeperiod": "RL", "timeperi_1": "roman,late-antique", "title": "Balisbiga\/Baioulous" }, "geometry": { "type": "Point", "coordinates": [ 39.9525, 38.7055 ] } },
{ "type": "Feature", "properties": { "timeperiod": "L", "timeperi_1": "late-antique", "title": "Attachas" }, "geometry": { "type": "Point", "coordinates": [ 40.7522, 38.347 ] } },
{ "type": "Feature", "properties": { "timeperiod": "L", "timeperi_1": "late-antique", "title": "*Artales\/*Arda?" }, "geometry": { "type": "Point", "coordinates": [ 40.3497, 39.3121 ] } },
{ "type": "Feature", "properties": { "timeperiod": "L", "timeperi_1": "late-antique", "title": "Arsinia" }, "geometry": { "type": "Point", "coordinates": [ 39.7667, 38.2667 ] } },
{ "type": "Feature", "properties": { "timeperiod": "L", "timeperi_1": "late-antique", "title": "*Aribacha" }, "geometry": { "type": "Point", "coordinates": [ 42.1864, 37.8472 ] } },
{ "type": "Feature", "properties": { "timeperiod": "L", "timeperi_1": "late-antique", "title": "*Aphoumon\/Kish" }, "geometry": { "type": "Point", "coordinates": [ 41.453, 38.0419 ] } },
{ "type": "Feature", "properties": { "timeperiod": "L", "timeperi_1": "late-antique", "title": "Akbas" }, "geometry": { "type": "Point", "coordinates": [ 41.0389, 38.2635 ] } },
{ "type": "Feature", "properties": { "timeperiod": "CUERRRTLL", "timeperi_1": "chalcolithic-mesopotamia,ubaid-early-dynastic-ii-mesopotamia,early-dynastic-mesopotamia,roman-middle-east,roman-early-empire-parthian-middle-east,roman,transition-roman-early-empire-late-antique,late-antique,late-antique-sasanian-middle-east", "title": "Ain Sinu\/Zagurae?" }, "geometry": { "type": "Point", "coordinates": [ 42.1111, 36.3591 ] } },
{ "type": "Feature", "properties": { "timeperiod": "RL", "timeperi_1": "roman,late-antique", "title": "Cumania\/Biraparach\/Iouroeipaach" }, "geometry": { "type": "Point", "coordinates": [ 44.6819, 42.8171 ] } },
{ "type": "Feature", "properties": { "timeperiod": "HRMM", "timeperi_1": "hellenistic-republican,roman,mediaeval-byzantine,modern", "title": "Ani" }, "geometry": { "type": "Point", "coordinates": [ 43.5706, 40.5063 ] } },
{ "type": "Feature", "properties": { "timeperiod": "R", "timeperi_1": "roman", "title": "Kaims Castle" }, "geometry": { "type": "Point", "coordinates": [ -3.8419, 56.2952 ] } },
{ "type": "Feature", "properties": { "timeperiod": "R", "timeperi_1": "roman", "title": "Caer Llugwy" }, "geometry": { "type": "Point", "coordinates": [ -3.8742, 53.0976 ] } },
{ "type": "Feature", "properties": { "timeperiod": "I", "timeperi_1": "iron-age-britain", "title": "Badbury Rings" }, "geometry": { "type": "Point", "coordinates": [ -2.0557, 50.8271 ] } },
{ "type": "Feature", "properties": { "timeperiod": "I", "timeperi_1": "iron-age-britain", "title": "Eildon Hill hill fort" }, "geometry": { "type": "Point", "coordinates": [ -2.708, 55.5869 ] } },
{ "type": "Feature", "properties": { "timeperiod": "I", "timeperi_1": "iron-age-britain", "title": "Maes Knoll hill fort" }, "geometry": { "type": "Point", "coordinates": [ -2.5739, 51.3936 ] } },
{ "type": "Feature", "properties": { "timeperiod": "I", "timeperi_1": "iron-age-britain", "title": "Trendle Ring" }, "geometry": { "type": "Point", "coordinates": [ -3.2628, 51.1467 ] } },
{ "type": "Feature", "properties": { "timeperiod": "R", "timeperi_1": "roman", "title": "Edin's Hall Broch" }, "geometry": { "type": "Point", "coordinates": [ -2.3649, 55.8358 ] } },
{ "type": "Feature", "properties": { "timeperiod": "RL", "timeperi_1": "roman,late-antique", "title": "Castra Margensia" }, "geometry": { "type": "Point", "coordinates": [ 21.0283, 44.6983 ] } },
{ "type": "Feature", "properties": { "timeperiod": "R", "timeperi_1": "roman", "title": "Cărani" }, "geometry": { "type": "Point", "coordinates": [ 21.1641, 45.9102 ] } },
{ "type": "Feature", "properties": { "timeperiod": "RL", "timeperi_1": "roman,late-antique", "title": "*Caput Bovis" }, "geometry": { "type": "Point", "coordinates": [ 22.4746, 44.6752 ] } },
{ "type": "Feature", "properties": { "timeperiod": "R", "timeperi_1": "roman", "title": "Căciulăteşti" }, "geometry": { "type": "Point", "coordinates": [ 23.9494, 43.9367 ] } },
{ "type": "Feature", "properties": { "timeperiod": "RL", "timeperi_1": "roman,late-antique", "title": "Burgenae" }, "geometry": { "type": "Point", "coordinates": [ 20.2833, 44.95 ] } },
{ "type": "Feature", "properties": { "timeperiod": "R", "timeperi_1": "roman", "title": "Bumbeşti" }, "geometry": { "type": "Point", "coordinates": [ 23.3816, 45.1787 ] } },
{ "type": "Feature", "properties": { "timeperiod": "R", "timeperi_1": "roman", "title": "Bulci" }, "geometry": { "type": "Point", "coordinates": [ 22.1056, 46.0047 ] } },
{ "type": "Feature", "properties": { "timeperiod": "RL", "timeperi_1": "roman,late-antique", "title": "Bukovče" }, "geometry": { "type": "Point", "coordinates": [ 22.6295, 44.1766 ] } },
{ "type": "Feature", "properties": { "timeperiod": "R", "timeperi_1": "roman", "title": "Buciumi" }, "geometry": { "type": "Point", "coordinates": [ 23.0447, 47.0483 ] } },
{ "type": "Feature", "properties": { "timeperiod": "L", "timeperi_1": "late-antique", "title": "Brnjica" }, "geometry": { "type": "Point", "coordinates": [ 21.7698, 44.6434 ] } },
{ "type": "Feature", "properties": { "timeperiod": "L", "timeperi_1": "late-antique", "title": "Bregovina" }, "geometry": { "type": "Point", "coordinates": [ 21.5833, 43.0832 ] } },
{ "type": "Feature", "properties": { "timeperiod": "L", "timeperi_1": "late-antique", "title": "Brangović" }, "geometry": { "type": "Point", "coordinates": [ 19.8571, 44.2213 ] } },
{ "type": "Feature", "properties": { "timeperiod": "RL", "timeperi_1": "roman,late-antique", "title": "Boljetin" }, "geometry": { "type": "Point", "coordinates": [ 22.0348, 44.516 ] } },
{ "type": "Feature", "properties": { "timeperiod": "RL", "timeperi_1": "roman,late-antique", "title": "Bistreţu" }, "geometry": { "type": "Point", "coordinates": [ 23.4952, 43.8911 ] } },